"","Premises.Name","Doing.Business.As..DBA.","Actual.Address.of.Premises..Address1.","Additional.Address.Information..Address2.","City","State","Zip","Latitude","Longitude","Location"
"1","CALSHEA RESTAURANT CORP","THE TRIPLE CROWN","330 7TH AVENUE","","NEW YORK","NY",10001,40.74753301,-73.99321126,"(40.74753301, -73.99321126)"
"2","CO'R RESTAURANT L L C","O'REILLY'S PUB & RESTAURANT","56 W 31ST STREET","","NEW YORK","NY",10001,40.74755694,-73.98850344,"(40.74755694, -73.98850344)"
"3","G G P BAR & GRILL CORP","KASTELI 11","372 8TH AVENUE","","NEW YORK","NY",10001,40.74873322,-73.99587745,"(40.74873322, -73.99587745)"
"4","GARRYMORE RESTAURANT INC","NILES","371 7TH AVENUE","","NEW YORK","NY",10001,40.74879376,-73.99214205,"(40.74879376, -73.99214205)"
"5","GENTS ENTERPRISES INC","KABOOZ'S BAR & GRILL","PENN STATION-MAIN CONCOURSE","","NEW YORK","NY",10001,40.7507815,-73.99440774,"(40.7507815, -73.99440774)"
"6","GOURMET MANAGEMENT CORP","T G I FRIDAYS","PENNSYLVANIA STATION","CERTAIN SPACE ON LEVELS A & B","NEW YORK","NY",10001,40.7507815,-73.99440774,"(40.7507815, -73.99440774)"
"7","HANBAT RESTAURANT INC","","53 W 35TH STREET","","NEW YORK","NY",10001,40.75001985,-73.98608797,"(40.75001985, -73.98608797)"
"8","N & A PRODUCTIONS INC","","27 W 35TH ST","","NEW YORK","NY",10001,40.7495886,-73.98504589,"(40.7495886, -73.98504589)"
"9","NATURAL TOFU RESTAURANT CORP","SEOUL GARDEN","34 W 32ND ST 2ND FLOOR","","NEW YORK","NY",10001,40.7480606,-73.9878183,"(40.7480606, -73.9878183)"
"10","SALUMERIA BIELLESE INC","","376 378 8TH AVENUE","","NEW YORK","NY",10001,40.74892465,-73.99573393,"(40.74892465, -73.99573393)"
"11","SERVICE AMERICA CORPORATION/JACOB K JAVITS CON CNT","CENTERPLATE","655 W 34TH STREET","","NEW YORK","NY",10001,40.7564836,-74.00350517,"(40.7564836, -74.00350517)"
"12","TOLEDO 35 INC","CHODANGGOL","55 W 35TH STREET","","NEW YORK","NY",10001,40.75005278,-73.98616686,"(40.75005278, -73.98616686)"
"13","VELKONEL RESTAURANT INC","CAFE 31","220 W 31ST STREET","","NEW YORK","NY",10001,40.74956082,-73.99323155,"(40.74956082, -73.99323155)"
"14","WALTERS BAR INC","","389 8TH AVE","","NEW YORK","NY",10001,40.74926322,-73.99565286,"(40.74926322, -73.99565286)"
"15","WALTPETERICH RESTAURANT INC","FOLEYS NY PUB  & RESTAURANT","18 W 33RD STREET","","NEW YORK","NY",10001,40.74795438,-73.9856276,"(40.74795438, -73.9856276)"
"16","34TH STREET DINER INC","TRATTORIA BIANCA","481 8TH AVE","STORE 2","NEW YORK","NY",10001,NA,NA,""
"17","350 SEVENTH AVE REST CORP","","350 7TH AVE","","NEW YORK","NY",10001,40.74810983,-73.99279725,"(40.74810983, -73.99279725)"
"18","352 RESTAURANT CORP","","352 7TH AVENUE","","NEW YORK","NY",10001,40.74816375,-73.99275878,"(40.74816375, -73.99275878)"
"19","400 WEST 23RD STREET REST CORP","THE RAIL LINE DINER","400 W 23RD STREET","","NEW YORK","NY",10011,40.74652105,-74.00140652,"(40.74652105, -74.00140652)"
"20","402 EIGHTH AVENUE REST INC","MOLLY WEE PUB","402 8TH AVENUE","","NEW YORK","NY",10001,40.74965511,-73.99520786,"(40.74965511, -73.99520786)"
"21","COCKTAIL BLUE LLC","THE BOWERY BALLROOM","6 8 DELANCEY STREET","","NEW YORK","NY",10002,40.7370191,-74.00531463,"(40.7370191, -74.00531463)"
"22","PASTA & POTATOES INC","VILLAGE LANTERN","167 BLEECKER ST","","NEW YORK","NY",10002,40.72877952,-74.00026563,"(40.72877952, -74.00026563)"
"23","JACOB & KELLY INC","BOB BAR","235 ELDRIDGE ST","","NEW YORK","NY",10002,40.72234371,-73.98988335,"(40.72234371, -73.98988335)"
"24","RIVINGTON CAFE CORP","WELCOME TO THE JOHNSON'S","123 RIVINGTON STREET","","NEW YORK","NY",10002,40.71971097,-73.98735093,"(40.71971097, -73.98735093)"
"25","S W MONTE INC","THE MERCURY LOUNGE","217 E HOUSTON ST","","NEW YORK","NY",10002,40.72227382,-73.98678562,"(40.72227382, -73.98678562)"
"26","SAFF INC","SAPPHIRE LOUNGE","249 ELDRIDGE STREET","","NEW YORK","NY",10002,40.72250163,-73.98980263,"(40.72250163, -73.98980263)"
"27","STERLING PARKSIDE CORP","PARKSIDE LOUNGE","317 E HOUSTON STREET","","NEW YORK","NY",10002,40.72111278,-73.9830715,"(40.72111278, -73.9830715)"
"28","SWOON CORP","THE WHISKEY WARD","121 ESSEX ST","","NEW YORK","NY",10002,40.71948277,-73.98778949,"(40.71948277, -73.98778949)"
"29","95 STANTON STREET REST INC","ARLENE'S GROCERY","95 STANTON ST","","NEW YORK","NY",10002,40.72132112,-73.98827634,"(40.72132112, -73.98827634)"
"30","A T WEST 16TH ENTERPRISES LTD","CAMPEON","9 11 EAST 16TH STREET","","NEW YORK","NY",10003,40.73728702,-73.99242225,"(40.73728702, -73.99242225)"
"31","ABC HOME FURNISHINGS INC & VONGERICHTEN/SUAREZ LLC","PARLOUR CAFE","38 E 19TH STREET","","NEW YORK","NY",10003,40.73826795,-73.9896043,"(40.73826795, -73.9896043)"
"32","ALLEGRA ALLEGRA INC","LA LINEA","15 1ST AVENUE","","NEW YORK","NY",10003,40.7234282,-73.98839389,"(40.7234282, -73.98839389)"
"33","BEAU MAISON CORP","EL CANTINERO","86 UNIVERSITY PLACE","","NEW YORK","NY",10003,40.73353233,-73.99318768,"(40.73353233, -73.99318768)"
"34","BLUE & GOLD BAR INC","","79 E 7TH STREET","GROUND FLOOR STORE","NEW YORK","NY",10003,40.72727561,-73.9863089,"(40.72727561, -73.9863089)"
"35","DIFT LLC AND SWEET HOSPITALITY GROUP","DARYL ROTH THEATER","20 UNION SQUARE EAST","","NEW YORK","NY",10003,40.73605976,-73.98921107,"(40.73605976, -73.98921107)"
"36","FELLOW TRAVELERS LTD","THREE OF CUPS","83 1ST AVENUE","","NEW YORK","NY",10003,40.72582284,-73.98665506,"(40.72582284, -73.98665506)"
"37","GARDEN CAFE ASSOC LP SULCATA CORP GP & 3LPS","B BAR & GRILL","40 EAST 4TH ST","","NEW YORK","NY",10003,40.72718816,-73.99191321,"(40.72718816, -73.99191321)"
"38","HASAKI RESTAURANT INC","","210 E 9TH STREET","","NEW YORK","NY",10003,40.72974677,-73.98869783,"(40.72974677, -73.98869783)"
"39","HAVELI RESTAURANT INC","","100 2ND AVENUE","","NEW YORK","NY",10003,40.72725599,-73.98856047,"(40.72725599, -73.98856047)"
"40","HUNG TA CORP","LE ZEN CAFE","31 ST MARKS PLACE","","NEW YORK","NY",10003,40.72882025,-73.98805834,"(40.72882025, -73.98805834)"
"41","12 EAST 12 ASSOCIATES LP","GOTHAM BAR & GRILL","12 E 12TH STREET","","NEW YORK","NY",10003,40.73435415,-73.99398792,"(40.73435415, -73.99398792)"
"42","JIM GILES CORP","THE CENTRAL BAR","109 E 9TH STREET","","NEW YORK","NY",10003,40.73041861,-73.99002286,"(40.73041861, -73.99002286)"
"43","JUDEX ENTERPRISES INC","PANGEA","178 2ND AVENUE","","NEW YORK","NY",10003,40.73052453,-73.9861972,"(40.73052453, -73.9861972)"
"44","KANAE INC","","11 ST MARKS PLACE","","NEW YORK","NY",10003,40.7293109,-73.98922682,"(40.7293109, -73.98922682)"
"45","KRAINE GALLERY BAR INC","K G B BAR","85 E 4TH STREET","","NEW YORK","NY",10003,40.72651154,-73.9900631,"(40.72651154, -73.9900631)"
"46","LEX 18 INC","YAKITORI TAISHO","5 ST MARKS PLACE","BASEMENT","NEW YORK","NY",10003,40.72946002,-73.98957625,"(40.72946002, -73.98957625)"
"47","LONGFORD INC","BAR NONE","98 3RD AVE","","NEW YORK","NY",10003,40.73237172,-73.98791217,"(40.73237172, -73.98791217)"
"48","ME KONG DELTA INC","REPUBLIC","37A UNION SQUARE WEST","","NEW YORK","NY",10003,40.73662014,-73.99078147,"(40.73662014, -73.99078147)"
"49","MEATH TRAILS INC","THE GRAY MARE","61 2ND AVENUE","","NEW YORK","NY",10003,40.72594851,-73.98968004,"(40.72594851, -73.98968004)"
"50","MERLAGRE INC","PAUL & JIMMYS RESTAURANT","123 EAST 18TH ST","","NEW YORK","NY",10003,40.73657265,-73.98708533,"(40.73657265, -73.98708533)"
"51","MSD ENTERPRISES INC","VIRAGE","118 2ND AVENUE","","NEW YORK","NY",10003,40.72796845,-73.98804232,"(40.72796845, -73.98804232)"
"52","N Y RESTAURANT SUPPLIES INC","PANYA","29 3RD AVE","8 10 12 STUYVESANT ST","NEW YORK","NY",10003,40.72979939,-73.98970383,"(40.72979939, -73.98970383)"
"53","NEW YORK SHAKESPEARE FESTIVAL & JOES PUB LLC/ MGR","","425 LAFAYETTE ST","NORTH STORE","NEW YORK","NY",10003,40.72905988,-73.99212097,"(40.72905988, -73.99212097)"
"54","P P K BAR & RESTAURANT INC","ST MARK'S ALE HOUSE","2 ST MARKS PLACE","","NEW YORK","NY",10003,40.7294747,-73.98988435,"(40.7294747, -73.98988435)"
"55","PAPI LUIS CORP","ANYWAY CAFE","32 34 E 2ND STREET","","NEW YORK","NY",10003,40.72513303,-73.99070171,"(40.72513303, -73.99070171)"
"56","PATAIDEN FOOD & DRINK INC","MAGUIRES PUB","237 3RD AVENUE","","NEW YORK","NY",10003,40.73677787,-73.9845556,"(40.73677787, -73.9845556)"
"57","REQUISITE BOOTIE INC","LUCIEN","14 1ST AVENUE","","NEW YORK","NY",10009,40.72336533,-73.98827436,"(40.72336533, -73.98827436)"
"58","ROSS KELLY INC","FISH BAR","237 E 5TH ST","","NEW YORK","NY",10003,40.72739114,-73.99044109,"(40.72739114, -73.99044109)"
"59","SHARAKU INC","","14-16 STUYVESANT ST","","NEW YORK","NY",10003,40.72987402,-73.98919311,"(40.72987402, -73.98919311)"
"60","SILVET RESTAURANT CORP","IL CANTINORI","32 E 10TH STREET","","NEW YORK","NY",10003,40.73244475,-73.99328944,"(40.73244475, -73.99328944)"
"61","SOUTH CHINA SEA REST CO INC","INDOCHINE","430 LAFAYETTE STREET","","NEW YORK","NY",10003,40.7294143,-73.9919059,"(40.7294143, -73.9919059)"
"62","STEEPLECHASE INC","PARK BAR","19 E 15TH ST","","NEW YORK","NY",10003,40.73656952,-73.99269678,"(40.73656952, -73.99269678)"
"63","CLOISTER EAST INC,THE","CLOISTER CAFE","238 E 9TH STREET","","NEW YORK","NY",10003,40.7295532,-73.98824818,"(40.7295532, -73.98824818)"
"64","SCRATCHER CAFE INC,THE","","209 EAST 5TH ST","","NEW YORK","NY",10003,40.72769585,-73.99102569,"(40.72769585, -73.99102569)"
"65","WATERING HOLE OF 2ND AVE CORP,THE","THE QUEEN VIC","68 2ND AVENUE","","NEW YORK","NY",10003,40.72606708,-73.98942692,"(40.72606708, -73.98942692)"
"66","TOKYO MAMA INC","","240 E 9TH STREET","","NEW YORK","NY",10003,40.72953998,-73.98821747,"(40.72953998, -73.98821747)"
"67","TOMI NEW YORK INC","","239 E 53RD ST","","NEW YORK","NY",10022,40.75736695,-73.96846938,"(40.75736695, -73.96846938)"
"68","TOMKIN SQUARE KIDS INC","BIG BAR","73 75 E 7TH STREET","","NEW YORK","NY",10003,0,0,"(0.0, 0.0)"
"69","TWO AND EIGHT GOURMET LTD","DALLAS BBQ","132 2ND AVENUE","","NEW YORK","NY",10003,40.72858918,-73.98759797,"(40.72858918, -73.98759797)"
"70","VANESSA REALTY CORP","CUCINA DE PESCE","87 E 4TH STREET","","NEW YORK","NY",10003,40.72647485,-73.9899749,"(40.72647485, -73.9899749)"
"71","W C O U RADIO INC","THE TILE BAR","115 1ST AVENUE","","NEW YORK","NY",10003,40.72701787,-73.98579015,"(40.72701787, -73.98579015)"
"72","YERINA RESTAURANT CORP","ARTE RESTAURANT","21 E 9TH STREET","","NEW YORK","NY",10003,40.73233199,-73.99454899,"(40.73233199, -73.99454899)"
"73","TSAMPA INC","212 HISAE'S","212 E 9TH ST","","NEW YORK","NY",10003,40.72977291,-73.98861196,"(40.72977291, -73.98861196)"
"74","SHADES OF GREEN LLC","","125 E 15TH STREET","","NEW YORK","NY",10003,40.73463946,-73.98813221,"(40.73463946, -73.98813221)"
"75","129 EAST 15TH BAR CORP","","129 E 15TH ST","","NEW YORK","NY",10003,40.73455833,-73.98808868,"(40.73455833, -73.98808868)"
"76","155 SECOND AVE REST INC","THE THIRSTY SCHOLAR","155 2ND AVENUE","","NEW YORK","NY",10003,40.72954208,-73.98707545,"(40.72954208, -73.98707545)"
"77","29 ST MARKS PLACE REST INC","BULL MCCABES","29 ST MARKS PLACE","","NEW YORK","NY",10003,40.72886895,-73.98817555,"(40.72886895, -73.98817555)"
"78","31 UNION SQUARE WEST LLC","BLUE WATER GRILL","31 UNION SQUARE WEST","","NEW YORK","NY",10003,40.73657135,-73.99081796,"(40.73657135, -73.99081796)"
"79","EAST VILLAGE 4TH STREET CAFE INC","STILLWATERS BAR & GRILL","78 80 E 4TH STREET","","NEW YORK","NY",10003,40.72652453,-73.99024474,"(40.72652453, -73.99024474)"
"80","9TH STREET VENTURE LTD","SOLAS","232 E 9TH STREET","","NEW YORK","NY",10003,40.72959287,-73.98834034,"(40.72959287, -73.98834034)"
"81","FONTANA RESTAURANT CORP","JOSEPH'S","3 HANOVER SQUARE","","NEW YORK","NY",10004,40.70482248,-74.00985194,"(40.70482248, -74.00985194)"
"82","OCINOMLED LTD","DELMONICO RESTAURANT","56 BEAVER ST","","NEW YORK","NY",10004,40.70507183,-74.01011179,"(40.70507183, -74.01011179)"
"83","47 REALOPP CORP","TGI FRIDAYS","47 BROADWAY","AKA 23 TRINITY PLACE","NEW YORK","NY",10004,40.70650202,-74.01282995,"(40.70650202, -74.01282995)"
"84","DONORE CORP","THE IRISH PUNT","40 EXCHANGE PLACE","","NEW YORK","NY",10005,40.70588345,-74.01027512,"(40.70588345, -74.01027512)"
"85","RATHNALLY CORP","THE FULL SHILLING","160 PEARL ST","","NEW YORK","NY",10005,40.70577284,-74.00772317,"(40.70577284, -74.00772317)"
"86","COPAT RESTAURANT INC","O'HARA'S RESTAURANT","120 CEDAR ST","AKA 137 GREENWICH STREET","NEW YORK","NY",10006,40.7094278,-74.01222695,"(40.7094278, -74.01222695)"
"87","KEITH RESTAURANT INC","CHINA CHALET RESTAURANT","47 BROADWAY","","NEW YORK","NY",10006,40.70650202,-74.01282995,"(40.70650202, -74.01282995)"
"88","CAPTAIN MIKES SEAFOOD REST INC","MUDVILLE 9","126 CHAMBERS STREET","","NEW YORK","NY",10007,40.71524068,-74.00879475,"(40.71524068, -74.00879475)"
"89","MYRTLE FOOD BEVERAGES INC","TRIBECA TAVERN","15 6TH AVENUE","","NEW YORK","NY",10013,40.71920686,-74.00522613,"(40.71920686, -74.00522613)"
"90","11 WAVERLY PUB LTD","JOSIE WOOD'S PUB","11 WAVERLY PLACE","","NEW YORK","NY",10007,40.73002532,-73.99403492,"(40.73002532, -73.99403492)"
"91","CRAWFORD FLICK INC","","7 AVENUE A","","NEW YORK","NY",10009,40.7224568,-73.98621161,"(40.7224568, -73.98621161)"
"92","CULLEN RESTAURANT INC","ST DYMPHNA'S","118 ST MARKS PLACE","","NEW YORK","NY",10009,40.72725235,-73.9846485,"(40.72725235, -73.9846485)"
"93","EAE CORP","SIDEWALK BAR & RESTAURANT","94 96 AVENUE A","","NEW YORK","NY",10009,40.7254528,-73.98386827,"(40.7254528, -73.98386827)"
"94","FRIDA & DIEGO CORP","","211 AVENUE A","","NEW YORK","NY",10009,40.72976383,-73.98089502,"(40.72976383, -73.98089502)"
"95","162 4 AVE B BAR","DREAM BABY","162 164 AVENUE B","","NEW YORK","NY",10009,40.72697672,-73.97989577,"(40.72697672, -73.97989577)"
"96","LOVE PICIN INC","COYOTE UGLY SALOON","153 1ST AVENUE","","NEW YORK","NY",10009,40.72845826,-73.98473697,"(40.72845826, -73.98473697)"
"97","LUDWIKA MICKEVICIUS","BLANCHES TAVERN","135 AVE A","","NEW YORK","NY",10009,40.72685963,-73.98293303,"(40.72685963, -73.98293303)"
"98","MONOLITH INC","RAVEN","194 AVE A","","NEW YORK","NY",10009,40.72914182,-73.98119068,"(40.72914182, -73.98119068)"
"99","MOONWALKERS RESTAURANT CORP","PYRAMID","101 AVENUE A","","NEW YORK","NY",10009,40.72573783,-73.98382678,"(40.72573783, -73.98382678)"
"100","NEW STATFORD RESTAURANT INC","TEN DEGREES","121 ST MARKS PLACE","","NEW YORK","NY",10009,40.72733248,-73.98454096,"(40.72733248, -73.98454096)"
"101","ODESSA RESTAURANT INC","ODESSA","117 AVENUE A","","NEW YORK","NY",10009,NA,NA,""
"102","PARALLEL BAR INC","THE SUMMIT BAR","133 AVE C","","NEW YORK","NY",10009,40.7249392,-73.97830121,"(40.7249392, -73.97830121)"
"103","PATTY MC CARTHYS INC","HI-FI","169 AVENUE A","","NEW YORK","NY",10009,40.72817519,-73.98204948,"(40.72817519, -73.98204948)"
"104","SEVEN A CAFE INC","","130 E 7TH STREET","AKA 109 AVENUE A","NEW YORK","NY",10009,40.72601877,-73.98362877,"(40.72601877, -73.98362877)"
"105","ST MARKS ENTERPRISES INC","VBAR ST MARKS","132 1ST AVENUE","","NEW YORK","NY",10009,40.72747534,-73.9852982,"(40.72747534, -73.9852982)"
"106","SWAUTO LTD","","25 AVENUE A","","NEW YORK","NY",10009,40.72288335,-73.98589151,"(40.72288335, -73.98589151)"
"107","197 ARTICHOKE CORP, THE","NO MALICE PALACE","197 E 3RD ST","","NEW YORK","NY",10009,40.72275884,-73.98304457,"(40.72275884, -73.98304457)"
"108","THUNDERBOLT CORP","ACE","531 E 5TH STREET","","NEW YORK","NY",10009,40.72458324,-73.98361409,"(40.72458324, -73.98361409)"
"109","WISHBONE PRODUCTIONS INC","DOC HOLIDAYS","141 AVENUE A","AKA 442 E 9TH STREET","NEW YORK","NY",10009,40.72716376,-73.98279202,"(40.72716376, -73.98279202)"
"110","119 AVENUE A RESTAURANT CORP","ODESSA RESTAURANT","119 AVENUE A","","NEW YORK","NY",10009,40.72634158,-73.98339114,"(40.72634158, -73.98339114)"
"111","177 CHRISTIE INC","ESPERANTO","145 AVE C","","NEW YORK","NY",10009,40.72532775,-73.97801665,"(40.72532775, -73.97801665)"
"112","219 AVENUE B MUSIC LOUNGE INC","REVISION LOUNGE AND GALLERY","219 AVENUE B","","NEW YORK","NY",10009,40.72879835,-73.97840794,"(40.72879835, -73.97840794)"
"113","224 AVENUE B INC","","224 AVENUE B","","NEW YORK","NY",10009,40.72885452,-73.97853216,"(40.72885452, -73.97853216)"
"114","510 EAST 11TH STREET CORP","THE 11TH STREET BAR","510 E 11TH STREET","","NEW YORK","NY",10009,40.72826058,-73.98152111,"(40.72826058, -73.98152111)"
"115","732 BELLA INC","BLACK & WHITE","86 E 10TH ST","","NEW YORK","NY",10009,40.73109549,-73.99005849,"(40.73109549, -73.99005849)"
"116","GIORGIOS OF GRAMERCY INC","GIORGIOS OF GRAMERCY","27 E 21ST ST","","NEW YORK","NY",10010,40.739756,-73.98934693,"(40.739756, -73.98934693)"
"117","HILLSTONE RESTAURANT GROUP INC","HILLSTONE RESTAURANT","51 MADISON AVE","","NEW YORK","NY",10010,40.74301119,-73.9863157,"(40.74301119, -73.9863157)"
"118","INISHOWEN INC","MOLLY'S","287 3RD AVENUE","","NEW YORK","NY",10010,40.73830431,-73.9834353,"(40.73830431, -73.9834353)"
"119","MEG RESTAURANT ENTERPRISES LTD","NOVITA","102 E 22ND STREET","","NEW YORK","NY",10010,40.73938818,-73.98669221,"(40.73938818, -73.98669221)"
"120","RHM RESTAURANT CORP","ROLFS","281 3RD AVE","","NEW YORK","NY",10010,40.73810918,-73.98357787,"(40.73810918, -73.98357787)"
"121","THEMEFOOD INC","LIVE BAIT","14 E 23RD STREET","","NEW YORK","NY",10010,40.741106,-73.9887068,"(40.741106, -73.9887068)"
"122","336 PUB INC","FITZGERALDS PUB","336 3RD AVE","","NEW YORK","NY",10010,40.74001293,-73.98233725,"(40.74001293, -73.98233725)"
"123","34 W 22ND STREET COMEDY CORP","METROPOLITAN ROOM","34 WEST 22ND STREET","","NEW YORK","NY",10010,40.74129819,-73.99123506,"(40.74129819, -73.99123506)"
"124","AMF BOWLING CENTERS INC","300 NEW YORK","60 CHELSEA PIERS","","NEW YORK","NY",10011,40.74691508,-74.00823534,"(40.74691508, -74.00823534)"
"125","BABBO LLC","","110 WAVERLY PLACE","","NEW YORK","NY",10011,40.73241678,-73.99916082,"(40.73241678, -73.99916082)"
"126","BARRACUDA LOUNGE INC","BARRACUDA","275 WEST 22ND STREET","","NEW YORK","NY",10011,40.74435799,-73.99818267,"(40.74435799, -73.99818267)"
"127","BOTTINO CORP","BOTTINO","246 248 10TH AVE","","NEW YORK","NY",10011,40.74851705,-74.00347214,"(40.74851705, -74.00347214)"
"128","BUCKWHEAT & ALFALFA INC","ROCKING HORSE MEXICAN CAFE","182 8TH AVENUE","","NEW YORK","NY",10011,40.74295034,-74.00010722,"(40.74295034, -74.00010722)"
"129","CON & CON CATERERS INC","FLANNERY'S BAR","205 W 14TH STREET","","NEW YORK","NY",10011,40.73867728,-73.99981896,"(40.73867728, -73.99981896)"
"130","DA UMBERTO RESTAURANT INC","","107 W 17TH STREET","","NEW YORK","NY",10011,40.73941811,-73.995655,"(40.73941811, -73.995655)"
"131","ELGIN THEATRE FOUNDATION INC","THE JOYCE THEATER","175 8TH AVE","","NEW YORK","NY",10011,NA,NA,""
"132","FAYLOW CORP","CRISPO","240 W 14TH ST","","NEW YORK","NY",10011,40.7390146,-74.00086576,"(40.7390146, -74.00086576)"
"133","FRENCH ROAST INC","LA CONTENTA OESTE","78 W 11TH STREET","","NEW YORK","NY",10011,40.73503141,-73.99756961,"(40.73503141, -73.99756961)"
"134","GREEN 90 INC","","90 92 GREENWICH AVENUE","","NEW YORK","NY",10011,40.73776826,-74.00173767,"(40.73776826, -74.00173767)"
"135","KONKAPOT ENTERTAINMENT INC","","61 CHELSEA PIERS","","NEW YORK","NY",10011,40.74695045,-74.00822876,"(40.74695045, -74.00822876)"
"136","L RAY LLC","TEDDY'S HIDEWAY","64 W 10TH STREET","","NEW YORK","NY",10011,40.73425707,-73.99759929,"(40.73425707, -73.99759929)"
"137","LILLY COOGANS INC","WESTSIDE TAVERN","360 WEST 23RD ST","","NEW YORK","NY",10011,40.74581702,-73.99989299,"(40.74581702, -73.99989299)"
"138","MESTRE INC","LE ZIE 2000","172 7TH AVENUE","","NEW YORK","NY",10011,40.74234364,-73.99700717,"(40.74234364, -73.99700717)"
"139","N & J SALAM CORP","SALAM RESTAURANT","104 W 13TH STREET","","NEW YORK","NY",10011,40.73668471,-73.99753563,"(40.73668471, -73.99753563)"
"140","ONE ONE DOMESTIC CORPORATION","BASTA PASTA RESTAURANT","37 39 W 17TH STREET","GROUND FLOOR","NEW YORK","NY",10011,40.73847494,-73.99338659,"(40.73847494, -73.99338659)"
"141","PINEIRO RESTAURANT INC","GENES RESTAURANT","73 W 11TH STREET","","NEW YORK","NY",10011,40.73505473,-73.99732727,"(40.73505473, -73.99732727)"
"142","QUEPOS INC","CAFE LOUP","105 W 13TH STREET","","NEW YORK","NY",10011,40.73678075,-73.99746561,"(40.73678075, -73.99746561)"
"143","SEVENTH AVENUE TOMATO INC","","209 7TH AVENUE","","NEW YORK","NY",10011,NA,NA,""
"144","TEJO REST INC","GAROTA DE IPANEMA","252 WEST 14TH STREET","","NEW YORK","NY",10011,40.73914886,-74.00119872,"(40.73914886, -74.00119872)"
"145","RED CAT LLC,THE","","227 10TH AVENUE","","NEW YORK","NY",10011,40.74790924,-74.00408581,"(40.74790924, -74.00408581)"
"146","TUTTO BENE RESTAURANT INC","CHELSEA RISTORANTE ITALIANO","108 8TH AVENUE","","NEW YORK","NY",10011,40.74060951,-74.0017996,"(40.74060951, -74.0017996)"
"147","WASHINGTON PLACE LLC","BLUE HILL RESTAURANT","75 WASHINGTON PLACE","","NEW YORK","NY",10011,40.73192433,-73.99958824,"(40.73192433, -73.99958824)"
"148","ZESTFUL MANAGEMENT CORP","BAR SIX","502 AVE OF THE AMERICAS","","NEW YORK","NY",10011,40.73655583,-73.99742656,"(40.73655583, -73.99742656)"
"149","119 7TH AVENUE CAFETERIA LLC","CAFETERIA","119 121 1/2 7TH AVE","","NEW YORK","NY",10011,40.74058169,-73.99820121,"(40.74058169, -73.99820121)"
"150","151 ROYS REST INC","FLIGHT 151","151 8TH AVENUE","","NEW YORK","NY",10011,40.74198282,-74.00097558,"(40.74198282, -74.00097558)"
"151","160 BISTRO INC","LE SINGE VERT","160 7TH AVE","","NEW YORK","NY",10011,40.74196239,-73.99728068,"(40.74196239, -73.99728068)"
"152","223 WEST CORP","REBAR","223 W 19TH ST","","NEW YORK","NY",10011,40.74192907,-73.99811031,"(40.74192907, -73.99811031)"
"153","35 WEST 20TH STREET REST INC","PERIYALI","35 W 20TH STREET","","NEW YORK","NY",10011,40.74018317,-73.99204782,"(40.74018317, -73.99204782)"
"154","ANDIKIANA CORP","SILVER SPURS","490 494 LAGUARDIA PLACE","","NEW YORK","NY",10012,40.72719132,-73.99976576,"(40.72719132, -73.99976576)"
"155","BEA'S TAVERN INC","BOTANICA","47 EAST HOUSTON STREET","","NEW YORK","NY",10012,40.72466425,-73.99455117,"(40.72466425, -73.99455117)"
"156","BENSUSAN RESTAURANT CORP","BLUE NOTE JAZZ CLUB","131 W 3RD STREET","","NEW YORK","NY",10012,40.73057535,-74.00029196,"(40.73057535, -74.00029196)"
"157","BLEECKER STREET BAR CORP","BLEEKER STREET BAR","58 BLEECKER ST","","NEW YORK","NY",10012,40.72613867,-73.99509101,"(40.72613867, -73.99509101)"
"158","BLL RESTAURANT CORP","PORTO BELLO RESTAURANT","208 THOMPSON STREET","","NEW YORK","NY",10012,40.72868997,-73.99935226,"(40.72868997, -73.99935226)"
"159","CLAUDISAL REST CORP","THE MALT HOUSE","206 THOMPSON STREET","","NEW YORK","NY",10012,40.7286236,-73.99940845,"(40.7286236, -73.99940845)"
"160","DAV TSI DAV INC","TERRA BLUES","149 BLEECKER STREET 2FL","2ND FLR","NEW YORK","NY",10012,40.72834116,-73.99938153,"(40.72834116, -73.99938153)"
"161","DIMUR ENTERPRISES INC","MADAME X","94 WEST HOUSTON STREET","","NEW YORK","NY",10012,40.72715455,-74.00006253,"(40.72715455, -74.00006253)"
"162","DOJO RESTAURANT INC","DOJO WEST","14 W 4TH STREET","","NEW YORK","NY",10012,40.72875498,-73.99506632,"(40.72875498, -73.99506632)"
"163","DOWNTOWN RESTAURANT CO LLC","CIPRIANI DOWNTOWN","372 376 WEST BROADWAY","","NEW YORK","NY",10012,40.7235659,-74.00282498,"(40.7235659, -74.00282498)"
"164","DYNAMIC MUSIC CORP","OLIVE TREE CAFE & COMEDY CELLAR","117 MACDOUGAL ST","","NEW YORK","NY",10012,40.73015394,-74.00042651,"(40.73015394, -74.00042651)"
"165","FULL JEEP CORPORATION","PECULIER PUB","145 BLEECKER STREET","","NEW YORK","NY",10012,40.72823053,-73.99915375,"(40.72823053, -73.99915375)"
"166","GFB RESTAURANT CORP","IL MULINO","86 W 3RD STREET","","NEW YORK","NY",10012,40.72978958,-73.99894351,"(40.72978958, -73.99894351)"
"167","IL BUCO CORP","IL BUCO","47 BOND ST","","NEW YORK","NY",10012,40.72618548,-73.99336065,"(40.72618548, -73.99336065)"
"168","J F JONES INC","GREAT JONES CAFE","54 GREAT JONES STREET","","NEW YORK","NY",10012,40.72685976,-73.99266205,"(40.72685976, -73.99266205)"
"169","JAPOND RESTAURANT LLC","","6 BOND STREET","","NEW YORK","NY",10012,40.72689701,-73.99451995,"(40.72689701, -73.99451995)"
"170","KYOTO OMEN U S A INC","OMEN RESTAURANT","113 THOMPSON STREET","","NEW YORK","NY",10012,40.72589405,-74.00184456,"(40.72589405, -74.00184456)"
"171","TEMPLE BAR INC","TEMPLE BAR","332 LAFAYETTE STREET","","NEW YORK","NY",10012,40.72595548,-73.99469302,"(40.72595548, -73.99469302)"
"172","MACDOUGAL REST INC","OFF THE WAGON","109 MACDOUGAL ST","","NEW YORK","NY",10012,40.72987591,-74.00066475,"(40.72987591, -74.00066475)"
"173","MERCER KITCHEN LLC","","147 MERCER ST","AKA 99 PRINCE STREET","NEW YORK","NY",10012,40.72479934,-73.99853309,"(40.72479934, -73.99853309)"
"174","MICHAEL G FANELLI INC","FANELLIS","94 PRINCE STREET","","NEW YORK","NY",10012,40.72459381,-73.99865362,"(40.72459381, -73.99865362)"
"175","MONTES TRATTORIA LTD","","97 MACDOUGAL STREET","","NEW YORK","NY",10012,40.72943906,-74.00104054,"(40.72943906, -74.00104054)"
"176","142 MERCER STREET LLC","LURE FISHBAR","142 MERCER ST","","NEW YORK","NY",10012,40.72456298,-73.99856153,"(40.72456298, -73.99856153)"
"177","NOHO STAR INC","NOHO STAR","54 BLEECKER STREET","","NEW YORK","NY",10012,40.72597627,-73.99489191,"(40.72597627, -73.99489191)"
"178","RDK RESTAURANT CORP","BISTRO LES AMIS","180 SPRING STREET","","NEW YORK","NY",10012,40.72480952,-74.0026273,"(40.72480952, -74.0026273)"
"179","RED CLAM LLC","LUPA","170 THOMPSON STREET","","NEW YORK","NY",10012,40.72751558,-74.00034182,"(40.72751558, -74.00034182)"
"180","RESTAURANT VENTURES OF N Y INC","ALTESI DOWNTOWN","200 SPRING STREET","","NEW YORK","NY",10012,40.72517569,-74.00338314,"(40.72517569, -74.00338314)"
"181","SPRING LOUNGE LLC","","209 MULBERRY ST","AKA 48 SPRING ST","NEW YORK","NY",10012,40.72185395,-73.99637028,"(40.72185395, -73.99637028)"
"182","CRYSTAL ROOM L P, THE","BLUE RIBBON","97 SULLIVAN STREET","","NEW YORK","NY",10012,0,0,"(0.0, 0.0)"
"183","SILKEN THOMAS REST INC,THE","SWIFT","34 EAST 4TH STREET","","NEW YORK","NY",10012,40.72912183,-73.99581515,"(40.72912183, -73.99581515)"
"184","TOM & JERRYS BAR REST INC","","288 ELIZABETH STREET","","NEW YORK","NY",10012,40.7245617,-73.99330703,"(40.7245617, -73.99330703)"
"185","WINDY GATES SOHO INC","BALTHAZAR","80 82 SPRING STREET","","NEW YORK","NY",10012,40.72270654,-73.99826073,"(40.72270654, -73.99826073)"
"186","130 WEST 3RD CAFE INC","","130 W 3RD STREET","","NEW YORK","NY",10012,40.73052936,-74.00046356,"(40.73052936, -74.00046356)"
"187","15 ACRES INC","KETTLE OF FISH","57 59 CHRISTOPHER ST","","NEW YORK","NY",10014,0,0,"(0.0, 0.0)"
"188","31 GREAT JONES RESTAURANT CORP","VIC'S","31 GREAT JONES STREET","","NEW YORK","NY",10012,40.72711811,-73.9934461,"(40.72711811, -73.9934461)"
"189","5 SPRING STREET CORP","SWEET & VICIOUS BAR","5 SPRING STREET GROUND FL","","NEW YORK","NY",10012,40.7210726,-73.99400838,"(40.7210726, -73.99400838)"
"190","9 G J BAR & RESTAURANT INC","ACME BAR & GRILL","9 GREAT JONES STREET","","NEW YORK","NY",10012,40.72740861,-73.9940071,"(40.72740861, -73.9940071)"
"191","B & D AGAIN LLC","DISTILLED NY","211 W BROADWAY","","NEW YORK","NY",10013,40.71893459,-74.00641743,"(40.71893459, -74.00641743)"
"192","BUBBYS PIE CO INC","","120 HUDSON STREET","","NEW YORK","NY",10013,40.71991034,-74.00849938,"(40.71991034, -74.00849938)"
"193","BUONA NOTTE INCORPORATED","BUONA NOTTE RESTAURANT","120 MULBERRY STREET","","NEW YORK","NY",10013,40.71780529,-73.99804221,"(40.71780529, -73.99804221)"
"194","CAFFE SILVESTRI INC","CAFFE NAPOLI","130 MULBERRY STREET","AKA 191 HESTER STREET","NEW YORK","NY",10013,NA,NA,""
"195","OLGA STREET LTD","LUCKY STRIKE","59 GRAND ST","","NEW YORK","NY",10013,40.72221525,-74.00345035,"(40.72221525, -74.00345035)"
"196","DL RESTAURANT DEVELOPMENT LLC","SCALINI FEDELI RISTORANTE","165 DUANE ST","","NEW YORK","NY",10013,40.71726607,-74.00907708,"(40.71726607, -74.00907708)"
"197","FERRARA FOODS & CONFECTION INC","FERRARA FOODS & CONFECTION","195 GRAND STREET","","NEW YORK","NY",10013,40.71916304,-73.99704147,"(40.71916304, -73.99704147)"
"198","FUMEE INC","SOHO CIGAR BAR","32 WATTS ST","","NEW YORK","NY",10013,40.72356078,-74.00448324,"(40.72356078, -74.00448324)"
"199","GIGINO INC","GIGINO","323 GREENWICH STREET","","NEW YORK","NY",10013,40.71742424,-74.01054886,"(40.71742424, -74.01054886)"
"200","HOME BOY RESTAURANT INC","TRIBECA GRILL","375 GREENWICH STREET","","NEW YORK","NY",10013,40.71943601,-74.01016267,"(40.71943601, -74.01016267)"
"201","IL COMMENDATORE RESTAURANT INC","CASA BELLA RISTORANTE","127A MULBERRY STREET","","NEW YORK","NY",10013,42.89687502,-78.86201848,"(42.89687502, -78.86201848)"
"202","IN BOCCA AL LUPO LTD","","113 MULBERRY STREET","","NEW YORK","NY",10013,40.71760785,-73.99832495,"(40.71760785, -73.99832495)"
"203","JING FONG RESTAURANT INC","JING FONG","14 20 ELIZABETH STREET","","NEW YORK","NY",10013,40.71579219,-73.9973464,"(40.71579219, -73.9973464)"
"204","JO RACH INC","THE CAFE PALERMO","148 MULBERRY STREET","","NEW YORK","NY",10013,40.71904997,-73.99733754,"(40.71904997, -73.99733754)"
"205","MOUQUINHO ENTERPRISES INC","","549 GREENWICH STREET","","NEW YORK","NY",10013,40.72743091,-74.00876518,"(40.72743091, -74.00876518)"
"206","NFKA CORP","ACAPELLA","1 HUDSON STREET","","NEW YORK","NY",10013,40.71551003,-74.00929861,"(40.71551003, -74.00929861)"
"207","ORIGINAL VINCENTS EST 1904 INC","VINCENTS","119 MOTT STREET","","NEW YORK","NY",10013,40.71785315,-73.99718981,"(40.71785315, -73.99718981)"
"208","P E C GROUP LTD","PEPOLINO","281 W BROADWAY","","NEW YORK","NY",10013,40.72063981,-74.00505268,"(40.72063981, -74.00505268)"
"209","P J'S OF LITTLE ITALY INC","PELLEGRINOS","138 MULBERRY STREET","","NEW YORK","NY",10013,40.71853774,-73.99758622,"(40.71853774, -73.99758622)"
"210","READE STREET PUB NYC INC","READE STREET PUB","135 READE STREET","","NEW YORK","NY",10013,40.7162154,-74.00940113,"(40.7162154, -74.00940113)"
"211","REBA REALTY CORP","WALKER'S","16 N MOORE ST","","NEW YORK","NY",10013,40.71976435,-74.00684828,"(40.71976435, -74.00684828)"
"212","RIOMAR CORP","KANA","324 SPRING STREET","","NEW YORK","NY",10013,40.72592771,-74.00917469,"(40.72592771, -74.00917469)"
"213","SALAAM BOMBAY RESTAURANT INC","","319 GREENWICH STREET","","NEW YORK","NY",10013,40.71716244,-74.01061984,"(40.71716244, -74.01061984)"
"214","CUPPING ROOM CAFE INC,THE","CUPPING ROOM CAFE","359 W BROADWAY","","NEW YORK","NY",10013,40.72290166,-74.00320404,"(40.72290166, -74.00320404)"
"215","ODEON INC, THE","","145 W BROADWAY","","NEW YORK","NY",10013,40.71698022,-74.00797282,"(40.71698022, -74.00797282)"
"216","164 MULBERRY STREET CORP","DA NICO","164 MULBERRY STREET","","NEW YORK","NY",10013,40.71978959,-73.99702712,"(40.71978959, -73.99702712)"
"217","2B RESTAURANT CORP","PEASANT","194 ELIZABETH STREET","","NEW YORK","NY",10013,40.72169174,-73.99446233,"(40.72169174, -73.99446233)"
"218","273 CHURCH WALKER INC","","273 CHURCH ST","","NEW YORK","NY",10013,40.71834284,-74.00513713,"(40.71834284, -74.00513713)"
"219","57 GRAND STREET CAFE CORP","TOAD HALL","57 GRAND STREET","","NEW YORK","NY",10013,40.72221457,-74.0035838,"(40.72221457, -74.0035838)"
"220","HOME RESTAURANT  LLC","HOME RESTAURANT","20 CORNELIA STREET","","NEW YORK","NY",10014,40.73158663,-74.00145,"(40.73158663, -74.00145)"
"221","AUTOMATIC SLIMS INC","AUTOMATIC SLIMS","131 BANK STREET","AKA 733 WASHINGTON STREET","NEW YORK","NY",10014,40.73630249,-74.0079346,"(40.73630249, -74.0079346)"
"222","BENNYS BURRITOS INC","BENNYS BURRITOS","111 113 GREENWICH AVENUE","","NEW YORK","NY",10014,40.73802704,-74.00204497,"(40.73802704, -74.00204497)"
"223","BUFFINTON LTD","","32 JONES STREET","(STORES #2,3,4)","NEW YORK","NY",10014,40.73207768,-74.00215475,"(40.73207768, -74.00215475)"
"224","CALIENTE CAB REST CO INC","CALIENTE CAB CO","61 7TH AVENUE SOUTH","","NEW YORK","NY",10014,40.73163207,-74.00385405,"(40.73163207, -74.00385405)"
"225","CHRIS ESTEY FOOD INC","PIECES","8 CHRISTOPHER ST","","NEW YORK","NY",10014,40.73400324,-73.99966672,"(40.73400324, -73.99966672)"
"226","CORNELIA STREET CAFE INC","","29 CORNELIA STREET","","NEW YORK","NY",10014,40.73162637,-74.00167987,"(40.73162637, -74.00167987)"
"227","COWGIRL INC","COWGIRL & BAR K","519 521 HUDSON STREET","","NEW YORK","NY",10014,40.73385851,-74.00634039,"(40.73385851, -74.00634039)"
"228","HENSAM ENTERPRISES INC","S.O.B.'S","204 VARICK STREET","","NEW YORK","NY",10014,40.72856258,-74.0052249,"(40.72856258, -74.0052249)"
"229","J P G LLC","PHILIP MARIE","569 HUDSON ST","","NEW YORK","NY",10014,40.73586199,-74.00602852,"(40.73586199, -74.00602852)"
"230","J S T RESTAURANT CORP","TAVERN ON JANE","31 8TH AVENUE","","NEW YORK","NY",10014,40.73817043,-74.00420191,"(40.73817043, -74.00420191)"
"231","LA RIPAILLE CORP","LA RIPAILLE","605 HUDSON ST","","NEW YORK","NY",10014,40.73731952,-74.00580951,"(40.73731952, -74.00580951)"
"232","LEWEK CORP","THE CUBBY HOLE","281 W 12TH STREET","","NEW YORK","NY",10014,40.73760088,-74.00380631,"(40.73760088, -74.00380631)"
"233","MANHATTAN MONSTER INC","","80 GROVE STREET","","NEW YORK","NY",10014,40.73332539,-74.00250231,"(40.73332539, -74.00250231)"
"234","MIRABI INC","DOWN THE HATCH","175 179 W 4TH STREET","","NEW YORK","NY",10014,40.73243487,-74.00167856,"(40.73243487, -74.00167856)"
"235","NATALEX REST INC","BURRITO LOCO","166 W 4TH STREET","","NEW YORK","NY",10014,40.73191116,-74.00137861,"(40.73191116, -74.00137861)"
"236","RAJMAR HOLDINGS INC","HUDSON BAR & BOOKS","636 HUDSON STREET","","NEW YORK","NY",10014,40.73872534,-74.00541916,"(40.73872534, -74.00541916)"
"237","S L P MANAGEMENT INC","THE SLAUGHTERED LAMB","182 W 4TH STREET","","NEW YORK","NY",10014,40.73238506,-74.00180848,"(40.73238506, -74.00180848)"
"238","VILLAGE ACADEMY BAR INC,THE","THE HANGAR","115 CHRISTOPHER STREET","","NEW YORK","NY",10014,40.73329935,-74.00519158,"(40.73329935, -74.00519158)"
"239","TO HUA LTD","DO HWA RESTAURANT","53 55 CARMINE ST","","NEW YORK","NY",10014,40.72980744,-74.00407452,"(40.72980744, -74.00407452)"
"240","TORTILLA FLATS INC","TORTILLA FLATS","767 WASHINGTON STREET","","NEW YORK","NY",10014,40.73745056,-74.00812906,"(40.73745056, -74.00812906)"
"241","58 JAZZ INC","ARTHURS TAVERN","57 GROVE STREET","","NEW YORK","NY",10014,40.73309911,-74.00357689,"(40.73309911, -74.00357689)"
"242","ANAGAP RESTAURANT INC","IRISH WHISKEY BAR","531 2ND AVENUE","","NEW YORK","NY",10016,NA,NA,""
"243","BALBONA RESTAURANT CORP","SAMS PLACE","132 E 39TH STREET","","NEW YORK","NY",10016,40.74945691,-73.97739967,"(40.74945691, -73.97739967)"
"244","BOLU INC","TURKISH KITCHEN","386 3RD AVENUE","","NEW YORK","NY",10016,40.7417521,-73.98108245,"(40.7417521, -73.98108245)"
"245","BRASERO RESTAURANT INC","BABY BO'S CANTINA","627 2ND AVENUE","","NEW YORK","NY",10016,40.74496323,-73.97582285,"(40.74496323, -73.97582285)"
"246","C P N CORP","NOTARO RESTAURANT","635 2ND AVENUE","","NEW YORK","NY",10016,40.74524231,-73.97561938,"(40.74524231, -73.97561938)"
"247","CEAD SLAINTE INC","PADDY REILLYS","519 2ND AVENUE","","NEW YORK","NY",10016,40.7414961,-73.97834122,"(40.7414961, -73.97834122)"
"248","CELTIC TIGER INC","THE BLACK SHEEP","583 3RD AVENUE","","NEW YORK","NY",10016,40.7483488,-73.97610966,"(40.7483488, -73.97610966)"
"249","GEMINI DINER INC","GEMINI DINER","641 2ND AVENUE","","NEW YORK","NY",10016,40.74545163,-73.97546678,"(40.74545163, -73.97546678)"
"250","GROUBEN FOOD CORP","BUBO","515 3RD AVE","","NEW YORK","NY",10016,40.74602054,-73.97780729,"(40.74602054, -73.97780729)"
"251","HAKUBAI INC","","66 PARK AVENUE","17TH FLOOR","NEW YORK","NY",10016,40.74964683,-73.97967673,"(40.74964683, -73.97967673)"
"252","HAKUBAI INC","","42 E 38TH STREET","","NEW YORK","NY",10016,40.74991619,-73.98040676,"(40.74991619, -73.98040676)"
"253","JACKSON HOLE BURGER INC","JACKSON HOLE","521 3RD AVENUE","","NEW YORK","NY",10016,40.74625671,-73.97763634,"(40.74625671, -73.97763634)"
"254","HOUSE OF LASAGNA INC","","334 LEXINGTON AVENUE","","NEW YORK","NY",10016,40.74957018,-73.97746185,"(40.74957018, -73.97746185)"
"255","MDO DEVELOPMENT CORP","THE WATER CLUB","500 E 30TH ST","32ND STREET & EAST RIVER","NEW YORK","NY",10016,40.74074,-73.97431,"(40.74074, -73.97431)"
"256","MENDYS RESTAURANT INC","BEDFORD ON PARK","10 PARK AVENUE","","NEW YORK","NY",10016,40.74717131,-73.98147799,"(40.74717131, -73.98147799)"
"257","NEW YORK PUBS INC","THE GINGER MAN","11 EAST36 S 36TH STREET","","NEW YORK","NY",10016,40.74945482,-73.98284638,"(40.74945482, -73.98284638)"
"258","ORENSE INC","TOLEDO RESTAURANT","6 E 36TH STREET","","NEW YORK","NY",10016,40.74948785,-73.98321996,"(40.74948785, -73.98321996)"
"259","PGM NEW YORK INC","MADISON BISTRO","238 MADISON AVE","","NEW YORK","NY",10016,40.7499204,-73.98145695,"(40.7499204, -73.98145695)"
"260","RIO RESTAURANT ASSOCIATES LTD","EL RIO GRANDE","560 3RD AVE (AKA 160 E 38 ST)","","NEW YORK","NY",10016,40.74765454,-73.97678317,"(40.74765454, -73.97678317)"
"261","SALVATORE'S CORP","COPPOLA'S EAST","378 3RD AVENUE","","NEW YORK","NY",10016,40.74146114,-73.98129673,"(40.74146114, -73.98129673)"
"262","SAMS 2ND AVENUE ALE  HOUSE INC","WATERFRONT ALE HOUSE","540 2ND AVENUE","","NEW YORK","NY",10016,40.74222538,-73.97764771,"(40.74222538, -73.97764771)"
"263","T & T 130 PIZZA CORP","BELLA NAPOLI","130 MADISON AVENUE","","NEW YORK","NY",10016,NA,NA,""
"264","VALDOME INC","","122 E 27TH STREET","","NEW YORK","NY",10016,40.74218671,-73.98344664,"(40.74218671, -73.98344664)"
"265","VILLA BERULIA INC","VILLA BERULIA RESTAURANT","107 E 34TH STREET","","NEW YORK","NY",10016,40.74696114,-73.98089535,"(40.74696114, -73.98089535)"
"266","267 MADISON PUB INC","MULLIGANS","267 MADISON AVENUE","","NEW YORK","NY",10016,40.75110358,-73.98048924,"(40.75110358, -73.98048924)"
"267","449 RESTAURANT INC","MOONSTRUCK E RESTAURANT","449 3RD AVENUE","","NEW YORK","NY",10016,40.74376752,-73.97945643,"(40.74376752, -73.97945643)"
"268","513 THIRD RESTAURANT LTD","JOSHUA TREE","513 3RD AVENUE","","NEW YORK","NY",10016,40.74594181,-73.97786427,"(40.74594181, -73.97786427)"
"269","560 THIRD AVE GROCERY CORP","DUKES","560 566 THIRD AVE","","NEW YORK","NY",10016,40.74790404,-73.9765991,"(40.74790404, -73.9765991)"
"270","AMISH CORPORATION","CLUB USAGI","320 324 E 49TH STREET","STORES 3 & 4","NEW YORK","NY",10017,40.75398213,-73.96836625,"(40.75398213, -73.96836625)"
"271","ARK BRYANT PARK LLC","BRYANT PARK GRILL","25 W 40TH ST","BRYANT PARK  42ND STREET","NEW YORK","NY",10017,40.75257,-73.98257,"(40.75257, -73.98257)"
"272","ARK BRYANT PARK LLC","BRYANT PARK GRILL","25 W 40TH ST","BRYANT PARK 40TH STREET","NEW YORK","NY",10017,40.75257,-73.98257,"(40.75257, -73.98257)"
"273","AZUSA OF JAPAN INC","AZUSA OF JAPAN","3 E 44TH STREET","","NEW YORK","NY",10017,40.75474123,-73.97972631,"(40.75474123, -73.97972631)"
"274","GRAND CENTRAL OYSTER BAR INC","GRAND CENTRAL OYSTER BAR","GRAND CENTRAL TERMINAL","","NEW YORK","NY",10017,40.75300149,-73.97786028,"(40.75300149, -73.97786028)"
"275","IL POSTINO INC","","337 339 E 49TH ST","","NEW YORK","NY",10017,40.75389441,-73.96800967,"(40.75389441, -73.96800967)"
"276","JBM PM ASSOCIATES INC","GENTE","730 3RD AVENUE","ENTRANCE ON E 45TH STREET","NEW YORK","NY",10017,40.75305263,-73.97284428,"(40.75305263, -73.97284428)"
"277","JJJ & R RESTAURANT INC","BOBBY VAN'S","230 PARK AVENUE","STORE#14","NEW YORK","NY",10017,40.75456158,-73.97615174,"(40.75456158, -73.97615174)"
"278","LENMAR RESTAURANT INC","PIETROS","232 EAST 43RD ST","","NEW YORK","NY",10017,40.75112569,-73.97318605,"(40.75112569, -73.97318605)"
"279","MORTONS OF CHICAGO/5TH AVE INC","MORTON'S THE STEAKHOUSE","551 5TH AVENUE","","NEW YORK","NY",10017,40.75554721,-73.97923994,"(40.75554721, -73.97923994)"
"280","OSTERIA LAGUNA LLC","OSTERIA LAGUNA","209 E 42ND STREET","","NEW YORK","NY",10017,40.75068084,-73.97408852,"(40.75068084, -73.97408852)"
"281","P S DEVELOPMENT LLC","PERSHING SQUARE","90 EAST 42ND ST","","NEW YORK","NY",10017,40.75217246,-73.97792536,"(40.75217246, -73.97792536)"
"282","PATROON OPERATING COMPANY LLC","ARETSKY'S PATROON","158 160 E 46TH ST","","NEW YORK","NY",10017,40.75362308,-73.97348376,"(40.75362308, -73.97348376)"
"283","PENNY PORT LLC","MICHAEL JORDANS STEAK","23 VANDERBILT AVE","","NEW YORK","NY",10017,40.75300149,-73.97786028,"(40.75300149, -73.97786028)"
"284","PUNCHGINI INC","BUKHARA GRILL & INDIAN SPI","217 E 49TH ST","","NEW YORK","NY",10017,NA,NA,""
"285","SHO RIKI INC","","141 E 45TH ST BSMNT, FL 1","","NEW YORK","NY",10017,40.75316469,-73.97419511,"(40.75316469, -73.97419511)"
"286","SINHA LLC","CASA","72 74 BEDFORD ST","","NEW YORK","NY",10014,40.73147652,-74.00481906,"(40.73147652, -74.00481906)"
"287","SUSHIYA JAPANESE REST INC","SUSHIYA JAPANESE REST","28 W 56TH ST","","NEW YORK","NY",10017,40.76262448,-73.97541351,"(40.76262448, -73.97541351)"
"288","SAKE CLUB INC,THE","SAKAGURA","211 E 43RD STREET","","NEW YORK","NY",10017,40.75138821,-73.97365384,"(40.75138821, -73.97365384)"
"289","M ARAI INC","","137 E 45TH STREET","","NEW YORK","NY",10017,40.75324481,-73.97423812,"(40.75324481, -73.97423812)"
"290","MATSUYA NEW YORK INC","MATSUNOYA","131 E 45TH STREET","","NEW YORK","NY",10017,40.75738975,-73.98406737,"(40.75738975, -73.98406737)"
"291","14 EAST 47TH PUB INC","","14 E 47TH STREET","","NEW YORK","NY",10017,40.75605151,-73.97723403,"(40.75605151, -73.97723403)"
"292","3 EAST 48TH RESTAURANT INC","PJ MORAN'S","3 E 48TH STREET","","NEW YORK","NY",10017,40.75726298,-73.97790392,"(40.75726298, -73.97790392)"
"293","48TH RESTAURANT ASSOCIATES LLC","AVRA ESTIATORIO","145 E 48TH ST","","NEW YORK","NY",10017,40.75521913,-73.97307855,"(40.75521913, -73.97307855)"
"294","692 RESTAURANT CORP","MULDOONS IRISH PUB","692 3RD AVENUE","","NEW YORK","NY",10017,40.75186495,-73.97373626,"(40.75186495, -73.97373626)"
"295","ABIGAELS ON BROADWAY INC","ABIGAELS ON BROADWAY","1407 BROADWAY","","NEW YORK","NY",10018,40.75343946,-73.98719364,"(40.75343946, -73.98719364)"
"296","AQUA GRILL INC","","208 210 SPRING STREET","","NEW YORK","NY",10012,40.72537102,-74.00380094,"(40.72537102, -74.00380094)"
"297","BALARINI RESTAURANT CORP","ARNO RISTORANTE","525 7TH AVENUE","AKA 141 WEST 38TH STREET","NEW YORK","NY",10018,40.7537259,-73.98848531,"(40.7537259, -73.98848531)"
"298","BLEIBURG RESTAURANT INC","KEENS CHOPHOUSE","72 W 36TH STREET","","NEW YORK","NY",10018,40.75079502,-73.98632421,"(40.75079502, -73.98632421)"
"299","FIVE M CORP","DELMONICO'S KITCHEN","205 W 36TH STREET","","NEW YORK","NY",10018,40.75238646,-73.98979892,"(40.75238646, -73.98979892)"
"300","PISCES BAR & TAVERN INC","","543 8TH AVE","","NEW YORK","NY",10018,40.75421226,-73.99204736,"(40.75421226, -73.99204736)"
"301","TAFT FRIDAY 50TH STREET LLC","T G I FRIDAYS","761 779 7TH AVENUE","AKA 155 161 W 50TH STREET","NEW YORK","NY",10018,40.76153575,-73.98286725,"(40.76153575, -73.98286725)"
"302","TRF OPERATING CORP","WINDFALL","23 WEST 39TH ST","","NEW YORK","NY",10018,40.75192367,-73.98295446,"(40.75192367, -73.98295446)"
"303","WEST 38 KOSHER DELI INC","BENS KOSHER DELI REST & CATERERS OF NEW YORK","209 W 38TH STREET","","NEW YORK","NY",10018,40.75368013,-73.98898993,"(40.75368013, -73.98898993)"
"304","147 W 40TH PUB INC","MUSTANG JACKS","147 W 40TH STREET","","NEW YORK","NY",10018,40.75444783,-73.98702895,"(40.75444783, -73.98702895)"
"305","AGORA RESTAURANT CORP","MOLYVOS","871 SEVENTH AVE","","NEW YORK","NY",10019,40.76455781,-73.98062826,"(40.76455781, -73.98062826)"
"306","APPLEJACK COFFEE SHOP INC","","1725 BROADWAY","","NEW YORK","NY",10019,40.76459696,-73.98232709,"(40.76459696, -73.98232709)"
"307","ARRIBA ARRIBA MEXICAN RESTAURANTS INC","ARRIBA ARRIBA MEXICAN REST","762 9TH AVENUE","","NEW YORK","NY",10019,40.76409998,-73.98839017,"(40.76409998, -73.98839017)"
"308","AU CAFE INC","RENDEZVOUS","1700 BROADWAY","","NEW YORK","NY",10019,NA,NA,""
"309","BARRAJA INC","THALIA","250 W 50TH STREET","NORTHERN STORE","NEW YORK","NY",10019,40.7618207,-73.98512304,"(40.7618207, -73.98512304)"
"310","BENIHANA NATIONAL CORP","BENIHANA OF TOKYO WEST","47 W 56TH STREET","","NEW YORK","NY",10019,40.76297601,-73.97594298,"(40.76297601, -73.97594298)"
"311","BRICCO CORP","","304 WEST 56TH ST","","NEW YORK","NY",10019,NA,NA,""
"312","BROADWAY BLUES 50TH ST CORP","","226 W 50TH STREET","","NEW YORK","NY",10019,40.76162254,-73.98465233,"(40.76162254, -73.98465233)"
"313","BROOKLYN DINER USA L P","BROOKLYN DINER USA INC G P","212 WEST 57TH ST","RED EYE/BKLYN ASSOC LP L P","NEW YORK","NY",10019,40.76579825,-73.9808215,"(40.76579825, -73.9808215)"
"314","CARNEGIE BAR AND BOOKS LTD","THE CARNEGIE CLUB","156 W 56TH ST","","NEW YORK","NY",10019,40.76444236,-73.9796055,"(40.76444236, -73.9796055)"
"315","CERTA GENTE LLC","","325 W 51ST STREET","","NEW YORK","NY",10019,40.76326697,-73.98633634,"(40.76326697, -73.98633634)"
"316","CFR CORP","FLUTE","205 W 54TH STREET","","NEW YORK","NY",10019,40.76372767,-73.98158758,"(40.76372767, -73.98158758)"
"317","CIELI PTNRS SMF GROUP INC GP","31LTD PTR TRATTORIA DELLE ARTE","900 SEVENTH AVENUE","AKA 900 7TH AVE","NEW YORK","NY",10019,40.76555841,-73.98004159,"(40.76555841, -73.98004159)"
"318","COCOS DELI INC","ROXY DELI","857 7TH AVENUE","","NEW YORK","NY",10019,40.76419678,-73.98089996,"(40.76419678, -73.98089996)"
"319","EL AZTECA MEXICAN REST INC","","783 9TH AVENUE","","NEW YORK","NY",10019,40.76484474,-73.98802782,"(40.76484474, -73.98802782)"
"320","ELYMAR RESTAURANT CORPORATION","CHEZ NAPOLEAN","365 W 50TH STREET","","NEW YORK","NY",10019,40.76311529,-73.98787917,"(40.76311529, -73.98787917)"
"321","FACES & NAMES INC","","161 W 54TH ST","","NEW YORK","NY",10019,40.76318038,-73.9802796,"(40.76318038, -73.9802796)"
"322","FITZGERALD EDIBLES INC","PJ CARNEYS","906 7TH AVE","","NEW YORK","NY",10019,40.76591803,-73.97979355,"(40.76591803, -73.97979355)"
"323","IGUANA NEW YORK LTD","IGUANA","240 W 54TH ST","","NEW YORK","NY",10019,40.7640927,-73.98277074,"(40.7640927, -73.98277074)"
"324","INISTIOGE INC","MCCOYS PUB","768 9TH AVE","","NEW YORK","NY",10019,40.76432263,-73.98831567,"(40.76432263, -73.98831567)"
"325","IRISH TOWN INC","JOHN CONNOLLYS","43 WEST 54TH STREET","","NEW YORK","NY",10019,40.76168093,-73.97669877,"(40.76168093, -73.97669877)"
"326","IROHA CORPORATION","IROHA RESTAURANT","152 W 49TH STREET","","NEW YORK","NY",10019,40.75948713,-73.98153063,"(40.75948713, -73.98153063)"
"327","JACOMAR INC","NOCELLO","257 W 55TH ST","","NEW YORK","NY",10019,40.76502378,-73.98271347,"(40.76502378, -73.98271347)"
"328","JAY JAY CABARET INC","FLASHDANCERS","1674 BROADWAY","","NEW YORK","NY",10019,NA,NA,""
"329","JOANNA SASHA & FRIENDS FOOD SVC INC","MANGIA","50 W 57TH STREET","","NEW YORK","NY",10019,40.76359751,-73.97561424,"(40.76359751, -73.97561424)"
"330","KIOSK 50 CORP","","322 W 50TH STREET","9TH & 8TH AVE","NEW YORK","NY",10019,40.76254571,-73.98679682,"(40.76254571, -73.98679682)"
"331","LAURENCE T GINSBERG &","HILARY C FESHBACH & L GINSBERG","239 W 52ND STREET","","NEW YORK","NY",10019,40.76307898,-73.98395794,"(40.76307898, -73.98395794)"
"332","LAZAR EDIBLES INC","HOLIDAY INN","440 W 57TH STREET","","NEW YORK","NY",10019,40.76835935,-73.98692354,"(40.76835935, -73.98692354)"
"333","LE BERNARDIN INC","LE BERNARDIN","787 7TH AVENUE","THE EQUITABLE TOWER CENTER","NEW YORK","NY",10019,40.761723,-73.98273296,"(40.761723, -73.98273296)"
"334","LEITRIM PUB INC","D J RYNOLDS","351 W 57TH STREET","","NEW YORK","NY",10019,40.76737008,-73.98429225,"(40.76737008, -73.98429225)"
"335","MCGEES BAR & GRILL INC","","240 W 55TH STREET","","NEW YORK","NY",10019,40.76487185,-73.9826533,"(40.76487185, -73.9826533)"
"336","MILOS INC","ESTIATORIO MILOS","125 W 55TH STREET","","NEW YORK","NY",10019,40.76339805,-73.9788251,"(40.76339805, -73.9788251)"
"337","PALM WEST CORPORATION","THE PALM WEST","250 WEST 50TH STREET","","NEW YORK","NY",10019,40.7618207,-73.98512304,"(40.7618207, -73.98512304)"
"338","PETROSSIAN RESTAURANTS INC","PETROSSIAN","180 W 58TH STREET","","NEW YORK","NY",10019,40.76590912,-73.97898421,"(40.76590912, -73.97898421)"
"339","PVIN CORP","JUDGE ROY BEAN","38 W 56TH ST","","NEW YORK","NY",10019,40.76280737,-73.975692,"(40.76280737, -73.975692)"
"340","RED EYE GRILL L P","RED EYE GRILL","890 SEVENTH AVE","","NEW YORK","NY",10019,40.76523416,-73.9802855,"(40.76523416, -73.9802855)"
"341","RUSSIAN SAMOVAR INC","","256 W 52ND STREET","","NEW YORK","NY",10019,40.76312713,-73.98436687,"(40.76312713, -73.98436687)"
"342","SANDBAR CONCESSION INC","NEIL SIMON THEATRE","250 WEST 52ND STREET","","NEW YORK","NY",10019,40.76307914,-73.98425407,"(40.76307914, -73.98425407)"
"343","SHANGHAI CITY CORP","SHANGHAI CITY","24 W 56TH STREET","","NEW YORK","NY",10019,40.76257005,-73.97528808,"(40.76257005, -73.97528808)"
"344","SWAGAT RESTAURANT INC","SAPPHIRE INDIAN CUISINE","1845 BROADWAY","","NEW YORK","NY",10023,40.76915444,-73.98226425,"(40.76915444, -73.98226425)"
"345","TBB TAVERN CORPORATION","HOUSE OF BREWS","302 W 51ST STREET","","NEW YORK","NY",10019,40.76291722,-73.98580955,"(40.76291722, -73.98580955)"
"346","TFRC 932 RESTAURANT ENTERP LTD","MATTS GRILL","932 8TH AVENUE","917-881-4431 CELL","NEW YORK","NY",10019,40.76548148,-73.98366923,"(40.76548148, -73.98366923)"
"347","MANHATTAN CLUB TIMESHARE ASSOCIATION INC,THE","THE MANHATTAN CLUB","200 W 56TH ST","","NEW YORK","NY",10019,40.76548155,-73.98200445,"(40.76548155, -73.98200445)"
"348","MANHATTAN OCEAN CLUB ASSOCIATES LLC, THE","QUALITY MEATS","57 W 58TH STREET","","NEW YORK","NY",10019,40.7644729,-73.97529662,"(40.7644729, -73.97529662)"
"349","THE RUSSIAN VODKA ROOM INC","","888 EIGHTH AVE","AKA 265 W 52ND ST","NEW YORK","NY",10019,40.76411851,-73.98467263,"(40.76411851, -73.98467263)"
"350","TOPARO INC","DA TOMMASO","903 8TH AVENUE","","NEW YORK","NY",10019,40.76487968,-73.9842807,"(40.76487968, -73.9842807)"
"351","TOUT VA BIEN RESTAURANT INC","","311 W 51ST ST","","NEW YORK","NY",10019,40.7631054,-73.98595626,"(40.7631054, -73.98595626)"
"352","TREL RESTAURANT INC","ROSIE O'GRADY'S","800 7TH AVENUE","","NEW YORK","NY",10019,40.76241332,-73.98240387,"(40.76241332, -73.98240387)"
"353","UNCLE NICKS INC","UNCLE NICKS","747 9TH AVENUE","","NEW YORK","NY",10019,40.76372569,-73.98883457,"(40.76372569, -73.98883457)"
"354","VICTORS CAFE 52ND STREET INC","","236 238 W 52ND STREET","","NEW YORK","NY",10019,40.76298315,-73.98402848,"(40.76298315, -73.98402848)"
"355","MATSUYA NEW YORK INC","KATSUHAMA RESTAURANT","43 W 55TH STREET","","NEW YORK","NY",10019,40.76230071,-73.97626073,"(40.76230071, -73.97626073)"
"356","1185 COMEDY INC","CAROLINES","1626 BROADWAY","","NEW YORK","NY",10019,40.76124772,-73.98408214,"(40.76124772, -73.98408214)"
"357","142 WEST 49TH ST REST CORP","PASTA LOVERS TRATTORIA","142 W 49TH STREET","","NEW YORK","NY",10019,40.7592928,-73.98106809,"(40.7592928, -73.98106809)"
"358","1483 FIRST AVE RESTAURANT INC","","1483 FIRST AVE","","NEW YORK","NY",10075,40.77123011,-73.95356398,"(40.77123011, -73.95356398)"
"359","1650 BROADWAY ASSOCIATES INC","ELLENS STARDUST DINER","1650 BROADWAY","","NEW YORK","NY",10019,40.76201286,-73.98356486,"(40.76201286, -73.98356486)"
"360","202 WEST 49TH PUB INC","PLAYWRIGHT TAVERN","202 W 49TH STREET","","NEW YORK","NY",10019,40.76052008,-73.98400344,"(40.76052008, -73.98400344)"
"361","21 CLUB INC","21 CLUB","21 WEST 52ND STREET","","NEW YORK","NY",10019,40.76015158,-73.97694816,"(40.76015158, -73.97694816)"
"362","312 WEST 58TH STREET REST CORP","COLISEUM RESTAURANT & BAR","312 W 58TH STREET","","NEW YORK","NY",10019,40.76751179,-73.98279098,"(40.76751179, -73.98279098)"
"363","316 WEST 49TH RESTAURANT CORP","CHURRASCARIA PLATAFORMA","316 W 49TH STREET","","NEW YORK","NY",10019,40.76182369,-73.98709802,"(40.76182369, -73.98709802)"
"364","52ND 8TH OPERATING INC","LEO LINDYS","825 7TH AVENUE","","NEW YORK","NY",10019,40.76304133,-73.98175379,"(40.76304133, -73.98175379)"
"365","55TH & 5TH LLC","MICHAELS RESTAURANT","24 W 55TH STREET","","NEW YORK","NY",10019,40.76194929,-73.97572336,"(40.76194929, -73.97572336)"
"366","57TH RESTAURANT ASSOCIATES LLC","","60 WEST 57TH ST","","NEW YORK","NY",10019,40.76377888,-73.97589935,"(40.76377888, -73.97589935)"
"367","787 EIGHTH AVE CORP","AQUA GRILL","787 8TH AVENUE","","NEW YORK","NY",10019,40.76098265,-73.98714205,"(40.76098265, -73.98714205)"
"368","DEL FRISCOS OF NEW YORK LLC","DEL FRISCOS DOUBLE EAGLE STEAK HOUSE","1221 AVE OF THE AMERICAS","","NEW YORK","NY",10020,40.75890286,-73.98121565,"(40.75890286, -73.98121565)"
"369","NO 604 FIFTH AVENUE REST INC","T G I FRIDAYS","604 5TH AVENUE","","NEW YORK","NY",10020,40.75762058,-73.9779386,"(40.75762058, -73.9779386)"
"370","RADIO CITY PRODUCTIONS LLC","MEZZANINE LEVEL","1260 AVENUE OF THE AMERICAS","","NEW YORK","NY",10020,40.75990347,-73.98030331,"(40.75990347, -73.98030331)"
"371","RAROC LLC","ROCK CENTER RINK BAR & GARDEN","10 WEST 50TH STREET","","NEW YORK","NY",10020,40.75869512,-73.97728314,"(40.75869512, -73.97728314)"
"372","SUSHIDEN AMERICA INC","","1251 AVENUE OF THE AMERICAS","","NEW YORK","NY",10020,40.75969117,-73.98062472,"(40.75969117, -73.98062472)"
"373","MAGNUM WINE GROUP LLC,THE","MORRELL WINE BAR & CAFE","1 ROCKEFELLER PLAZA","","NEW YORK","NY",10020,40.7578069,-73.97928016,"(40.7578069, -73.97928016)"
"374","ARSIM ASSOCIATES INC","LENOX HILL GRILL","1105 1107 LEXINGTON AVENUE","","NEW YORK","NY",10021,40.77378711,-73.95965101,"(40.77378711, -73.95965101)"
"375","BARNEYS INC","FRED'S AT BARNEYS NEW YORK","660 MADISON AVENUE,  9TH FLR","","NEW YORK","NY",10065,40.76453007,-73.97076548,"(40.76453007, -73.97076548)"
"376","CLUB MACANUDO INC","","26 E 63RD STREET","","NEW YORK","NY",10021,40.76602104,-73.96956419,"(40.76602104, -73.96956419)"
"377","DRITON LLC","NINO'S RISTORANTE","1354 1ST AVENUE","","NEW YORK","NY",10021,40.76824408,-73.95557637,"(40.76824408, -73.95557637)"
"378","EBAR TENANT CORP","ELI'S TABLE","1411 3RD AVE","","NEW YORK","NY",10021,40.77524457,-73.95654804,"(40.77524457, -73.95654804)"
"379","ENTERPRISE RESTAURANT LLC","AMARANTH","21 E 62ND STREET","","NEW YORK","NY",10065,40.76557977,-73.97017967,"(40.76557977, -73.97017967)"
"380","G H M RESTAURANT INC","O'FLANIGAN'S","1215 1ST AVENUE","","NEW YORK","NY",10065,40.76379191,-73.95899555,"(40.76379191, -73.95899555)"
"381","GOTHAM YARD CORP","SESSION 73","1359 1ST AVE","","NEW YORK","NY",10021,40.76847617,-73.95556973,"(40.76847617, -73.95556973)"
"382","GRACIE MUSE RESTAURANT CORP","","401 E 80TH STREET","AKA 1550 1ST AVENUE","NEW YORK","NY",10028,40.77297845,-73.95195718,"(40.77297845, -73.95195718)"
"383","LENOX ROOM CORP","T BAR STEAK & LOUNGE","181 E 73RD STREET","AKA 1278 3RD AVE","NEW YORK","NY",10021,40.77066297,-73.96051272,"(40.77066297, -73.96051272)"
"384","LEXINGTON BAR & BOOKS LTD","LEXINGTON BAR & BOOKS","1020 LEXINGTON AVE","","NEW YORK","NY",10021,40.77104452,-73.96181554,"(40.77104452, -73.96181554)"
"385","LIRA OF NEW YORK INC","LUKE'S BAR & GRILL","1394 3RD AVENUE","","NEW YORK","NY",10075,0,0,"(0.0, 0.0)"
"386","LUMA RESTAURANT INC","","1494 2ND AVE","","NEW YORK","NY",10075,0,0,"(0.0, 0.0)"
"387","M B R P  RESTAURANT INC","THE STUMBLE INN","1454 2ND AVENUE","","NEW YORK","NY",10021,40.77133073,-73.95642134,"(40.77133073, -73.95642134)"
"388","MA VI DO RESTAURANT INC","MEDITERRANEO","301 E 66TH STREET","AKA 1260 SECOND AVENUE","NEW YORK","NY",10065,40.76497261,-73.96115353,"(40.76497261, -73.96115353)"
"389","POST HOUSE INVESTORS LP","MAJORELLE","28 E 63RD STREET","","NEW YORK","NY",10021,40.76587429,-73.96913572,"(40.76587429, -73.96913572)"
"390","SOFIA FABULOUS PIZZA CORP","SERAFINA","1022 MADISON AVENUE","","NEW YORK","NY",10021,40.77607529,-73.96236967,"(40.77607529, -73.96236967)"
"391","TARO RESTAURANT INC","DUE","1396 3RD AVENUE","","NEW YORK","NY",10021,40.77452949,-73.95716796,"(40.77452949, -73.95716796)"
"392","ASIA SOCIETY & GREAT PERFORMANCES/ARTIST","AS WAITRESSES INC AS MGR","725 PARK AVE","","NEW YORK","NY",10021,40.76989687,-73.96447094,"(40.76989687, -73.96447094)"
"393","ROCKEFELLER UNIVERSITY,THE","","1230 YORK AVENUE CASPARY HALL","","NEW YORK","NY",10065,40.76299565,-73.95646729,"(40.76299565, -73.95646729)"
"394","THIERRY INC","LE CHARLOT","19 E 69TH STREET","AKA 829 MADISON AVENUE","NEW YORK","NY",10021,40.76985838,-73.96676124,"(40.76985838, -73.96676124)"
"395","THREE & SEVENTY THREE GOURMET LTD","DALLAS BBQ","203 E 72ND STREET","AKA 1265 3RD AVENUE","NEW YORK","NY",10021,40.76977379,-73.96052131,"(40.76977379, -73.96052131)"
"396","ZANIMAD FOOD CORP","THREE GUYS RESTAURANT","960 MADISON AVENUE","","NEW YORK","NY",10021,40.77399681,-73.96388707,"(40.77399681, -73.96388707)"
"397","1226 SECOND AVENUE REALTY CORP","PRIMOLA RESTAURANT","1226 2ND AVENUE","","NEW YORK","NY",10021,40.76385237,-73.96187557,"(40.76385237, -73.96187557)"
"398","1404 N & A REST CORP","PARMA RESTAURANT","1404 3RD AVENUE","","NEW YORK","NY",10021,NA,NA,""
"399","1490 RESTAURANT CORP","DOC WATSONS","1490 2ND AVENUE","","NEW YORK","NY",10021,40.77237318,-73.95565591,"(40.77237318, -73.95565591)"
"400","417 70TH PUB INC","MURPHYS LAW","417 E 70TH STREET","","NEW YORK","NY",10021,40.76636641,-73.95648999,"(40.76636641, -73.95648999)"
"401","65TH STREET RESTAURANT LLC","DANIEL","60 E 65TH ST","AKA 610 PARK AVE","NEW YORK","NY",10021,40.76700657,-73.96803054,"(40.76700657, -73.96803054)"
"402","7 JUST ONE CORP","IGGY'S NEW YORK CITY","1452 2ND AVENUE","SOUTH STORE","NEW YORK","NY",10021,40.77127109,-73.95654606,"(40.77127109, -73.95654606)"
"403","967 LEXINGTON AVENUE CORP","BELLA BLU","967 LEXINGTON AVENUE","","NEW YORK","NY",10021,40.76921358,-73.96299039,"(40.76921358, -73.96299039)"
"404","BANGKOK GRAND PALACE INC","","882 1ST AVENUE","","NEW YORK","NY",10022,40.75372274,-73.96617822,"(40.75372274, -73.96617822)"
"405","BELCANTATA REST INC","PIG N WHISTLE ON 3RD","922 3RD AVENUE","","NEW YORK","NY",10022,40.75925402,-73.96833917,"(40.75925402, -73.96833917)"
"406","BRUNO & SONS INC","BRUNO'S CLUB A STEAKHOUSE","240 E 58TH STREET","","NEW YORK","NY",10022,40.76047445,-73.96611655,"(40.76047445, -73.96611655)"
"407","FELIDIA RESTAURANT INC","FELIDIA RESTAURANT","243 E 58TH STREET","","NEW YORK","NY",10022,40.76055263,-73.96600419,"(40.76055263, -73.96600419)"
"408","FENIX REST INC","ROSA MEXICANO","1061 63 1ST AVENUE","","NEW YORK","NY",10022,40.72519807,-73.98712072,"(40.72519807, -73.98712072)"
"409","GUASTAVINO'S INC & ROSE GROUP PARK AVENUE LLC","CLUB GUASTAVINO","409 E 59TH ST","","NEW YORK","NY",10022,40.75947392,-73.96148501,"(40.75947392, -73.96148501)"
"410","LE COLONIAL RESTAURANT INC","","149 E 57TH STREET","","NEW YORK","NY",10022,40.76084643,-73.96881558,"(40.76084643, -73.96881558)"
"411","TC VENTURES INC","MR CHOW OF NEW YORK","324 E 57TH STREET","","NEW YORK","NY",10022,40.75887839,-73.96445558,"(40.75887839, -73.96445558)"
"412","SAN PIETRO RESTAURANT INC","","520 MADISON AVENUE","","NEW YORK","NY",10022,40.76003682,-73.97406295,"(40.76003682, -73.97406295)"
"413","ST JAMES ASSOCS A LTD PRTNRSHP","CHAMBLAIR REALTY INC - DBA SMITH & WOLLENSKY","201 07 E 49TH AKA 797 3RD AVE","","NEW YORK","NY",10022,40.75517306,-73.97114512,"(40.75517306, -73.97114512)"
"414","STARJEM LLC","FRESCO ON THE GO","40 E 52ND STREET","","NEW YORK","NY",10022,40.75891951,-73.97440599,"(40.75891951, -73.97440599)"
"415","STARJEM RESTAURANT CORP","FRESCO BY SCOTTO","34 E 52ND STREET","AKA 485 MADISON AVENUE","NEW YORK","NY",10022,40.75896947,-73.97452483,"(40.75896947, -73.97452483)"
"416","SUSHIDEN AMERICA INC","SUSHIDEN","19 E 49TH STREET","","NEW YORK","NY",10022,40.75769,-73.97700583,"(40.75769, -73.97700583)"
"417","THAFATH INC","DEUX AMIS RESTAURANT","356 E 51ST ST","","NEW YORK","NY",10022,40.75492818,-73.96671836,"(40.75492818, -73.96671836)"
"418","OLD JOHN INC","","148 W 67TH STREET","","NEW YORK","NY",10023,40.77503084,-73.98315235,"(40.77503084, -73.98315235)"
"419","RESTAURANT AT SAKS FIFTH AVENUE & FIFTH","DINING LLC/DBA:RESTAURANT AT SAKS FIFTH AVENUE","611 5TH AVENUE","","NEW YORK","NY",10022,40.75789938,-73.97764321,"(40.75789938, -73.97764321)"
"420","TONALI INC","MAYA","1191 1ST AVENUE","","NEW YORK","NY",10022,40.76303417,-73.95953953,"(40.76303417, -73.95953953)"
"421","TURTLE BAY TAVERN CORP","TURTLE BAY TAVERN","987 2ND AVENUE","","NEW YORK","NY",10022,40.75624892,-73.96758539,"(40.75624892, -73.96758539)"
"422","UPSTAIRS DOWNSTAIRS OF NY INC","THE TOWN HOUSE OF N Y","234 E 58TH ST","","NEW YORK","NY",10022,40.76052796,-73.96624322,"(40.76052796, -73.96624322)"
"423","VETVA RESTAURANT CORP","","208 EAST 60TH STREET","","NEW YORK","NY",10022,40.76205993,-73.96600323,"(40.76205993, -73.96600323)"
"424","VINZIER INC","LE VEAU D OR","129 E 60TH STREET","","NEW YORK","NY",10022,40.76306948,-73.96811297,"(40.76306948, -73.96811297)"
"425","WEST 62 OPERATING LLC","ROSA MEXICANO AT LINCOLN CENTER","61 COLUMBUS AVE AKA 61 W 62ND","AKA 61 W 62ND STREET","NEW YORK","NY",10023,40.77235428,-73.98242963,"(40.77235428, -73.98242963)"
"426","WU & CHIEN INC","PEKING DUCK HOUSE","236 238 E 53RD STREET GR FLOOR","","NEW YORK","NY",10022,40.75727088,-73.96853935,"(40.75727088, -73.96853935)"
"427","120 EAST 56TH STREET REST CORP","MONTEBELLO","120 E 56TH STREET","","NEW YORK","NY",10022,40.7604429,-73.97023021,"(40.7604429, -73.97023021)"
"428","226 EAST 54TH STREET REST INC","LEXICON","226 E 54TH STREET","","NEW YORK","NY",10022,40.75801253,-73.96834658,"(40.75801253, -73.96834658)"
"429","37 EAST 50TH STREET CORP & REST GROUP MANAGEMENT","SVRS LLC - DBA MALONEY & PORCELLI","37 E 50TH STREET","","NEW YORK","NY",10022,40.7577996,-73.97532339,"(40.7577996, -73.97532339)"
"430","954 SECOND CORP","BLOCKHEAD'S MEXICAN DINER","954 2ND AVENUE","","NEW YORK","NY",10022,40.75518873,-73.96820512,"(40.75518873, -73.96820512)"
"431","965 FIRST RESTAURANT CORP","MADISON RESTAURANT","353 E 53RD STREET","","NEW YORK","NY",10022,40.75626259,-73.96586564,"(40.75626259, -73.96586564)"
"432","978 SECOND PUB INC","IRISH EXIT","978 2ND AVENUE","","NEW YORK","NY",10022,40.75594385,-73.96764519,"(40.75594385, -73.96764519)"
"433","ERS ENTERPRISES INC","PJ CLARKS AT LINCOLN SQUARE","44 W 63RD STREET","","NEW YORK","NY",10023,40.77083354,-73.98098772,"(40.77083354, -73.98098772)"
"434","FIRST 69TH STREET REALTY CORP","WESTSIDE RESTAURANT","2020 BROADWAY","","NEW YORK","NY",10023,40.77625503,-73.98193991,"(40.77625503, -73.98193991)"
"435","GABWAL RESTAURANT INC","GABRIELS","11 WEST 60TH STREET","AKA 1841 BROADWAY STORE A","NEW YORK","NY",10023,40.76908069,-73.98237642,"(40.76908069, -73.98237642)"
"436","J C B REST INC","MALACHYS","103 W 72ND STREET","","NEW YORK","NY",10023,40.7775185,-73.97889074,"(40.7775185, -73.97889074)"
"437","LINCOLN CTR PERFORMING ARTS & REST SERVICES I LLC","ALICE TULLY HALL","1941 47 BROADWAY","","NEW YORK","NY",10023,40.77356968,-73.98234998,"(40.77356968, -73.98234998)"
"438","LINCOLN CTR PERFORMING ARTS & REST SERVICES I LLC","AVERY FISHER HALL","100 COLUMBUS AVENUE","BROADWAY AT 65TH ST","NEW YORK","NY",10023,40.77266441,-73.9830439,"(40.77266441, -73.9830439)"
"439","MANABU INC","MANABU","58 W 56TH STREET","","NEW YORK","NY",10019,40.76302563,-73.9763584,"(40.76302563, -73.9763584)"
"440","NICHL DUE INC","POLPETTE 71","71 W 71ST STREET","","NEW YORK","NY",10023,40.77641337,-73.97839534,"(40.77641337, -73.97839534)"
"441","PASHA INC","","64 72 WEST 71ST STREET","","NEW YORK","NY",10023,40.77624019,-73.97828206,"(40.77624019, -73.97828206)"
"442","PROSCENIUM PARTNERS INC","THE TRIAD","158 W 72ND STREET","","NEW YORK","NY",10023,40.77821036,-73.98081791,"(40.77821036, -73.98081791)"
"443","SANTE FE RESTAURANT CORP","","73 W 71ST STREET","","NEW YORK","NY",10023,40.77643635,-73.97844996,"(40.77643635, -73.97844996)"
"444","STREATOR INC","CAFE LUXEMBOURG","200 W 70TH STREET","","NEW YORK","NY",10023,40.77725094,-73.98262448,"(40.77725094, -73.98262448)"
"445","SUGAR BAR INC","SUGAR BAR","254 WEST 72ND ST","","NEW YORK","NY",10023,40.77925332,-73.9833304,"(40.77925332, -73.9833304)"
"446","SWEET HOSPITALITY GROUP LLC","","150 W 65TH STREET","","NEW YORK","NY",10023,40.77359617,-73.98367241,"(40.77359617, -73.98367241)"
"447","T & W RESTAURANT INC","SHUN LEE WEST","37 43 W 65TH STREET","","NEW YORK","NY",10023,40.77227094,-73.98022548,"(40.77227094, -73.98022548)"
"448","TRIOMPHE RESTAURANT CORP","JEAN GEORGES","1 CENTRAL PARK W","","NEW YORK","NY",10023,40.76825459,-73.98152774,"(40.76825459, -73.98152774)"
"449","WESTSIDE TOMATO INC","ARTEPASTA","106 108 W 73RD STREET","","NEW YORK","NY",10023,40.77817682,-73.97863824,"(40.77817682, -73.97863824)"
"450","101 WEST 75 BAR & REST ENTERPRISES LTD","DIVE 75","101 W 75TH STREET","","NEW YORK","NY",10023,40.77943995,-73.97742319,"(40.77943995, -73.97742319)"
"451","BARJER CORP","FIREHOUSE","522 & 522 1/2 COLUMBUS AVENUE","","NEW YORK","NY",10024,40.78591435,-73.97267165,"(40.78591435, -73.97267165)"
"452","BROADWAY DESSERTS LTD","FRENCH ROAST","2342 2350 BROADWAY","","NEW YORK","NY",10024,40.78795277,-73.97658236,"(40.78795277, -73.97658236)"
"453","BSWR INC","SARABETH'S","423 AMSTERDAM AVE","","NEW YORK","NY",10024,40.78393675,-73.97765971,"(40.78393675, -73.97765971)"
"454","CAFE LALO INC","","201 WEST 83RD STREET","","NEW YORK","NY",10024,40.78579341,-73.9764393,"(40.78579341, -73.9764393)"
"455","COBRA RESTAURANT INC","THE PARLOUR","250 WEST 86TH STREET","","NEW YORK","NY",10024,40.78831707,-73.97666641,"(40.78831707, -73.97666641)"
"456","COPPOLAS OF NEW YORK CITY INC","COPPOLAS","206 W 79TH STREET","","NEW YORK","NY",10024,NA,NA,""
"457","D & A RESTAURANT LTD","LA MIRABELLE","102 W 86TH ST","","NEW YORK","NY",10024,40.78653448,-73.97230906,"(40.78653448, -73.97230906)"
"458","83/AMSTERDAM RESTAURANT CORP","HI LIFE BAR & GRILL","477 AMSTERDAM AVENUE","","NEW YORK","NY",10024,40.78561525,-73.97642748,"(40.78561525, -73.97642748)"
"459","J & D OPERATORS LLC","PROHIBITION","501 503 COLUMBUS AVENUE","","NEW YORK","NY",10024,40.78523479,-73.9729954,"(40.78523479, -73.9729954)"
"460","PIZZERIA UNO OF COLUMBUS AVENUE INC","UNO CHICAGO GRILL","432 COLUMBUS AVENUE","","NEW YORK","NY",10024,40.78309319,-73.97472939,"(40.78309319, -73.97472939)"
"461","PJJK RESTAURANT CORP","BLONDIES","212 WEST 79TH ST","","NEW YORK","NY",10024,40.78324007,-73.97868348,"(40.78324007, -73.97868348)"
"462","RESTAURANT ASSOCIATES INC","","CENTRAL PARK WEST & 79TH ST","","NEW YORK","NY",10024,0,0,"(0.0, 0.0)"
"463","AMERICAN MUSEUM OF,THE","NATURAL HISTORY","CENTRAL PARK WEST & 79TH ST","","NEW YORK","NY",10024,NA,NA,""
"464","THIRD AVENUE RESTAURANT INC","JAKE'S DILEMMA","430 AMSTERDAM AVENUE","","NEW YORK","NY",10024,40.7842427,-73.97760612,"(40.7842427, -73.97760612)"
"465","UPPER WEST REST CORP","FRED'S","476 AMSTERDAM AVE","","NEW YORK","NY",10024,40.78567522,-73.97654892,"(40.78567522, -73.97654892)"
"466","WESTSIDE STORY INC","","200 W 79TH ST","","NEW YORK","NY",10024,40.78312144,-73.97839877,"(40.78312144, -73.97839877)"
"467","JULY 96 CORP","CITY DINER","2441 BROADWAY","","NEW YORK","NY",10024,40.79092625,-73.97470781,"(40.79092625, -73.97470781)"
"468","425 AMSTERDAM CAFE INC","MCALEERS PUB","425 AMSTERDAM AVENUE","","NEW YORK","NY",10024,40.7839549,-73.97764689,"(40.7839549, -73.97764689)"
"469","442 AMSTERDAM RESTAURANT CORP","GIN MILL","442 AMSTERDAM AVENUE","","NEW YORK","NY",10024,40.78464577,-73.97731282,"(40.78464577, -73.97731282)"
"470","50 50 RESTAURANT CORP","SCALETTA RISTORANTE","50 W 77TH STREET","","NEW YORK","NY",10024,40.78001428,-73.97503668,"(40.78001428, -73.97503668)"
"471","520 COLUMBUS AVE LTD","GOOD ENOUGH TO EAT","520 COLUMBUS AVENUE","","NEW YORK","NY",10024,40.78585127,-73.97271884,"(40.78585127, -73.97271884)"
"472","ALTA JOLI RESTAURANT INC","EL REY DE LA CARIDAIS RET","973 AMSTERDAM AVENUE","","NEW YORK","NY",10025,40.80149872,-73.96485122,"(40.80149872, -73.96485122)"
"473","AWASH ETHIOPIAN RESTAURANT INC","","947 AMSTERDAM AVENUE","","NEW YORK","NY",10025,40.80063701,-73.96545191,"(40.80063701, -73.96545191)"
"474","GRILLO LTD","HENRYS","2741 BROADWAY","","NEW YORK","NY",10025,40.80058078,-73.96815232,"(40.80058078, -73.96815232)"
"475","HUSSIEN ENVIRONMENT INC","CLEOPATRAS NEEDLE","2483 2485 BROADWAY","","NEW YORK","NY",10025,40.7924011,-73.97364219,"(40.7924011, -73.97364219)"
"476","KARPENISI RESTAURANT CORP","MANHATTAN DINER","2532 BROADWAY","","NEW YORK","NY",10025,40.79359188,-73.97234202,"(40.79359188, -73.97234202)"
"477","LA NUEVA VICTORIA INC","","2536 BROADWAY","","NEW YORK","NY",10025,40.79369185,-73.97227073,"(40.79369185, -73.97227073)"
"478","LE SE AMSTERDAM 732 REST INC","THE DIVE BAR","732 AMSTERDAM AVENUE","","NEW YORK","NY",10025,40.79384239,-73.9705871,"(40.79384239, -73.9705871)"
"479","MOCHA LOUNGE INC","THE WEST END ON THE PARK","955 WEST END AVE","","NEW YORK","NY",10025,40.8021003,-73.96833372,"(40.8021003, -73.96833372)"
"480","PAULFRA RESTAURANT INC","","2751 BROADWAY","","NEW YORK","NY",10025,40.80101416,-73.96809104,"(40.80101416, -73.96809104)"
"481","TAP A KEG NEW YORK INC","TAP A KEG NEW YORK","2731 BROADWAY","","NEW YORK","NY",10025,40.80022712,-73.96822976,"(40.80022712, -73.96822976)"
"482","JOSEPH & LARRY CORPORATION,THE","THE HGTS S WESTN BAR/GRILL","2867 BROADWAY","2ND FLOOR","NEW YORK","NY",10025,40.80510498,-73.96622731,"(40.80510498, -73.96622731)"
"483","THREE HOOPLES LTD","BROADWAY DIVE","2662 BROADWAY","","NEW YORK","NY",10025,40.79785804,-73.96922177,"(40.79785804, -73.96922177)"
"484","UNITED HELLENES INC","SYMPOSIUM","544 W 113TH STREET","","NEW YORK","NY",10025,40.80535386,-73.96373192,"(40.80535386, -73.96373192)"
"485","V & T RESTAURANT INC","","1024 AMSTERDAM AVE","","NEW YORK","NY",10025,40.80316839,-73.96379293,"(40.80316839, -73.96379293)"
"486","WEST ABBEY TAVERN CORP","THE ABBEY PUB","237 W 105TH STREET","","NEW YORK","NY",10025,40.80036819,-73.96749304,"(40.80036819, -73.96749304)"
"487","1020 AMSTERDAM CORP","1020","1020 AMSTERDAM AVE","","NEW YORK","NY",10025,40.80301469,-73.96390738,"(40.80301469, -73.96390738)"
"488","J HOWARD REST INC","SHOWMANS CAFE","375 W 125TH STREET","","NEW YORK","NY",10027,40.81111132,-73.95325488,"(40.81111132, -73.95325488)"
"489","MASSAWA RESTAURANT CORP","MASSAWA RESTAURANT","1239 AMSTERDAM AVENUE","","NEW YORK","NY",10027,40.8099728,-73.95866167,"(40.8099728, -73.95866167)"
"490","SYLVIA WOODS INC","SYLVIA'S RESTAURANT","328 30 LENOX AVE","","NEW YORK","NY",10027,0,0,"(0.0, 0.0)"
"491","TRUSTEES OF COLUMBIA UNIV,THE","CITY OF NEW YORK, FERRIS BOOTH","2920 BROADWAY  LERNER HALL","N/E COR BROADWAY @ 114TH ST","NEW YORK","NY",10027,40.80665595,-73.96465198,"(40.80665595, -73.96465198)"
"492","112 FRENCH INC","LE MONDE","2883 87 BROADWAY","","NEW YORK","NY",10025,40.70769246,-74.0118295,"(40.70769246, -74.0118295)"
"493","ARTUROS PARK INC","","1617 YORK AVE","","NEW YORK","NY",10028,40.77528493,-73.94766041,"(40.77528493, -73.94766041)"
"494","CAFFE GRAZIE INC","CAFFE GRAZIE","26 E 84TH STREET","","NEW YORK","NY",10028,40.77959335,-73.96006843,"(40.77959335, -73.96006843)"
"495","CINQUE CORP","VA BENE","1589 2ND AVENUE","","NEW YORK","NY",10028,40.77554904,-73.95350577,"(40.77554904, -73.95350577)"
"496","DEMARCHELIER MANAGEMENT INC","DEMARCHELIER","50 E 86TH STREET","","NEW YORK","NY",10028,40.7807395,-73.9587314,"(40.7807395, -73.9587314)"
"497","EGG WHITE INC","BLOCKHEADS BURRITOS","1563 2ND AVE","","NEW YORK","NY",10028,40.77474788,-73.95409191,"(40.77474788, -73.95409191)"
"498","J H PAPPAS ENTERPRISES INC","GIOVANNI #25","25 E 83RD ST","","NEW YORK","NY",10028,40.77909384,-73.9607169,"(40.77909384, -73.9607169)"
"499","LATTANZI ENTERPRISES CORP","TRASTEVERE 84","155 E 84TH ST","","NEW YORK","NY",10028,40.778075,-73.95617464,"(40.778075, -73.95617464)"
"500","MAZ MEZCAL INC","MAZ MEZCAL","316 E 86TH ST","","NEW YORK","NY",10028,40.77768231,-73.95129536,"(40.77768231, -73.95129536)"
"501","RIVER LOUNGE INC","MAD RIVER BAR & GRILLE","1442 3RD AVE","","NEW YORK","NY",10028,40.77603091,-73.95607908,"(40.77603091, -73.95607908)"
"502","RSWB CORP","SARABETHS","1295 MADISON AVE","","NEW YORK","NY",10128,40.78451282,-73.95602969,"(40.78451282, -73.95602969)"
"503","TIRAMISU RESTAURANT LLC","","1410 3RD AVENUE","","NEW YORK","NY",10028,40.77499816,-73.95682218,"(40.77499816, -73.95682218)"
"504","WHEN IT'S CHILE ITS HOT INC","FLEX MUSSELS PRINCE EDWARD ISLAND","174 E 82ND STREET","","NEW YORK","NY",10028,40.77651098,-73.95669744,"(40.77651098, -73.95669744)"
"505","146 N & R CORPORATION","NICOLA'S","146 E 84TH STREET","","NEW YORK","NY",10028,40.77807397,-73.95646835,"(40.77807397, -73.95646835)"
"506","1621 RESTAURANTS INC","ELIO'S RESTAURANT","1621 2ND AVENUE","","NEW YORK","NY",10028,40.77665443,-73.95270035,"(40.77665443, -73.95270035)"
"507","200 EAST 81ST RESTAURANT CORP","","200 E 81ST STREET","","NEW YORK","NY",10028,40.77551267,-73.95629014,"(40.77551267, -73.95629014)"
"508","229 CAVAN CORK TAVERN INC","TRINITY PUB","229 E 84TH STREET","","NEW YORK","NY",10028,40.77725931,-73.95422756,"(40.77725931, -73.95422756)"
"509","235 EAST CAFE INC","BRANDY'S PIANO BAR","235 E 84TH STREET","","NEW YORK","NY",10028,40.77720648,-73.95409796,"(40.77720648, -73.95409796)"
"510","LONDELS INC","LONDELS SUPPER CLUB","2620 8TH AVENUE","AKA FREDERICK DOUGLAS BLVD","NEW YORK","NY",10030,NA,NA,""
"511","J A E L A R RESTAURANT CORP","","3533 BROADWAY","","NEW YORK","NY",10031,40.82626405,-73.95076524,"(40.82626405, -73.95076524)"
"512","EMPIRE SZECHUAN","NOODLE HOUSE INC","4041 49 BROADWAY","AKA 605 W 170TH STREET","NEW YORK","NY",10032,40.7065681,-74.01277553,"(40.7065681, -74.01277553)"
"513","1218 M & M BAR & GRILL INC","","1218 ST NICHOLAS AVENUE","","NEW YORK","NY",10032,40.84285995,-73.93834949,"(40.84285995, -73.93834949)"
"514","600 WEST 169TH REST. INC","COOGANS","4015 BROADWAY","","NEW YORK","NY",10032,40.84166384,-73.93953213,"(40.84166384, -73.93953213)"
"515","BARROW TAVERN INC","LIFFY II BAR","5009 BROADWAY","STORE #1","NEW YORK","NY",10034,40.8691415,-73.91731514,"(40.8691415, -73.91731514)"
"516","MARY K MAC INC","","221 DYCKMAN STREET","","NEW YORK","NY",10034,40.86564796,-73.92729587,"(40.86564796, -73.92729587)"
"517","ANNALISA ITALIA LTD","LA RIVISTA RISTORANTE","313 W 46TH ST","","NEW YORK","NY",10036,40.75995679,-73.98831847,"(40.75995679, -73.98831847)"
"518","AZOGUES CORP","VIA ITALIA","45 W 46TH ST","","NEW YORK","NY",10036,40.75663213,-73.98045267,"(40.75663213, -73.98045267)"
"519","CAFE LUGHNASA INC","LANGANS BAR & REST","150 W 47TH STREET","","NEW YORK","NY",10036,40.75882848,-73.98385973,"(40.75882848, -73.98385973)"
"520","CHEZ JOSEPHINE LTD","","414 W 42ND STREET","","NEW YORK","NY",10036,40.75862561,-73.99326909,"(40.75862561, -73.99326909)"
"521","EMINAX LLC","UTSAV","1185 6TH AVE","","NEW YORK","NY",10036,40.75756129,-73.98218388,"(40.75756129, -73.98218388)"
"522","ERMINIA RESTAURANT CORPORATION","LATTANZI'S","361 W 46TH STREET","","NEW YORK","NY",10036,40.76055899,-73.98959559,"(40.76055899, -73.98959559)"
"523","GMRI INC","THE OLIVE GARDEN ITALIAN #1451","201 WEST 47TH STREET","RESTAURANT #1451","NEW YORK","NY",10036,40.75926565,-73.98459099,"(40.75926565, -73.98459099)"
"524","GK GRILL LLC","LE MARAIS","150 W 46TH ST","","NEW YORK","NY",10036,40.75834078,-73.98464975,"(40.75834078, -73.98464975)"
"525","L & J BRAZIL RESTAURANT INC","VIA BRAZIL","34 36 W 46TH STREET","","NEW YORK","NY",10036,40.75643531,-73.98013525,"(40.75643531, -73.98013525)"
"526","LA BUCA REST CORP","TRUE BLUE","349 W 46TH ST","","NEW YORK","NY",10036,40.76041891,-73.98926797,"(40.76041891, -73.98926797)"
"527","LITTLE FISH INC","CARMINE'S","200 W 44TH STREET","AKA 1499 1501 BROADWAY","NEW YORK","NY",10036,40.75730472,-73.98609947,"(40.75730472, -73.98609947)"
"528","MLB ENTERPRISES CORP","LACE","725 7TH AVENUE","","NEW YORK","NY",10036,40.75993726,-73.98399562,"(40.75993726, -73.98399562)"
"529","NINTH AVENUE SALOON INC","RUDYS BAR & GRILL","627 9TH AVENUE","","NEW YORK","NY",10036,40.75990101,-73.99162687,"(40.75990101, -73.99162687)"
"530","NINTH AVENUE TOMATO INC","","635 9TH AVENUE","","NEW YORK","NY",10036,40.76016004,-73.99144513,"(40.76016004, -73.99144513)"
"531","OSTERIA AL DOGE LLC","OSTERIA AL DOGE","142 W 44TH ST","","NEW YORK","NY",10036,40.75675373,-73.98480554,"(40.75675373, -73.98480554)"
"532","PALACE CONCESSIONS INC","","1564 BROADWAY","","NEW YORK","NY",10036,40.75914259,-73.98509152,"(40.75914259, -73.98509152)"
"533","PARADISO 679 INC","B - SQUARED","679 9TH AVE","","NEW YORK","NY",10036,40.76151946,-73.99037838,"(40.76151946, -73.99037838)"
"534","POLA RESTAURANT INC","BECCO","355 W 46TH STREET","","NEW YORK","NY",10036,40.76048895,-73.98943178,"(40.76048895, -73.98943178)"
"535","PONGSRI THAI RESTAURANT CORP","","244 W 48TH STREET","","NEW YORK","NY",10036,40.76048437,-73.98583596,"(40.76048437, -73.98583596)"
"536","SANDBAR CONCESSION INC","MINSKOFF THEATRE","200 W 45TH STREET","","NEW YORK","NY",10036,40.75840358,-73.98676878,"(40.75840358, -73.98676878)"
"537","SANDBAR CONCESSION INC","BROOKS ATKINSON THEATRE","256 W 47TH STREET","","NEW YORK","NY",10036,40.75991425,-73.98644944,"(40.75991425, -73.98644944)"
"538","SANDBAR CONCESSION INC","NEDERLANDER THEATRE","208 W 41ST ST","","NEW YORK","NY",10036,40.75543158,-73.98778206,"(40.75543158, -73.98778206)"
"539","SANDBAR CONCESSION INC","GERSHWIN THEATRE","222 W 51ST STREET","","NEW YORK","NY",10019,40.76221362,-73.98413758,"(40.76221362, -73.98413758)"
"540","SANDBAR CONCESSION INC","","205 W 46TH STREET","","NEW YORK","NY",10036,40.75872379,-73.98528424,"(40.75872379, -73.98528424)"
"541","SANDBAR CONCESSION INC","MARRIOTT MARQUIS","1535 BROADWAY","","NEW YORK","NY",10036,40.75868997,-73.98542351,"(40.75868997, -73.98542351)"
"542","SANDBAR CONCESSIONS INC","RICHARD ROGERS THEATRE","226 W 46TH STREET","","NEW YORK","NY",10036,40.75885507,-73.98589228,"(40.75885507, -73.98589228)"
"543","SARDIS ENTERPRISES LTD","SARDIS","234 W 44TH ST","","NEW YORK","NY",10036,40.75796115,-73.98747757,"(40.75796115, -73.98747757)"
"544","SETA RESTAURANT CORP","AMARONE","686 688 NINTH AVENUE","","NEW YORK","NY",10036,40.76182432,-73.99007812,"(40.76182432, -73.99007812)"
"545","SWEET HOSPITALITY GROUP","THE NEW AMSTERDAM THEATER","214 W 42ND STREET","","NEW YORK","NY",10036,40.75618994,-73.98743606,"(40.75618994, -73.98743606)"
"546","THEATRE REFRESHMENT CO OF NY INC","TOWN HALL","123 W 43RD STREET","","NEW YORK","NY",10036,40.7559384,-73.98447246,"(40.7559384, -73.98447246)"
"547","THEATRE REFRESHMENT CO OF NY INC & SUNLIGHT","MANAGEMENT CORP, DBA: MUSIC BOX THEATRE","239 W 45TH STREET","","NEW YORK","NY",10036,40.75874077,-73.98725105,"(40.75874077, -73.98725105)"
"548","TIMES SQUARE BARBEQUE INC","VIRGIL'S BBQ","152 WEST 44TH STREET","","NEW YORK","NY",10036,40.75690716,-73.98516992,"(40.75690716, -73.98516992)"
"549","TRATTORIA TRE COLORI INC","","254 W 47TH ST","","NEW YORK","NY",10036,40.75994343,-73.98636867,"(40.75994343, -73.98636867)"
"550","TSE GROUP LLC","B B KING","243 W 42ND ST","","NEW YORK","NY",10036,40.7565995,-73.98812884,"(40.7565995, -73.98812884)"
"551","UEZU CORPORATION","KURUMAZUSHI II","7 E 47TH STREET","","NEW YORK","NY",10017,40.75656479,-73.97816099,"(40.75656479, -73.97816099)"
"552","W F RESTAURANTS INC","","322 W 46TH STREET","","NEW YORK","NY",10036,40.76002223,-73.9886261,"(40.76002223, -73.9886261)"
"553","WESTWAY DINER INC","WESTWAY DINER","614 616 9TH AVENUE","","NEW YORK","NY",10036,40.75955149,-73.99171567,"(40.75955149, -73.99171567)"
"554","WHOLE PIES INC","JOHNS PIZZERIA","260 W 44TH STREET","AKA 690 92 8TH AVENUE","NEW YORK","NY",10036,40.75814715,-73.98807255,"(40.75814715, -73.98807255)"
"555","10TH AVENUE GROUP INC","44 & X HELL'S KITCHEN","626 10TH AVE","","NEW YORK","NY",10036,40.76123409,-73.99420478,"(40.76123409, -73.99420478)"
"556","300 WEST 46TH STREET CORP","ODYSSEA RESTAURANT","729 8TH AVENUE","","NEW YORK","NY",10036,40.75970719,-73.98803964,"(40.75970719, -73.98803964)"
"557","340 WEST 46TH STREET CORP","LE RIVAGE","340 W 46TH STREET","GROUND FLOOR","NEW YORK","NY",10036,40.7602298,-73.98912035,"(40.7602298, -73.98912035)"
"558","45 GROUP INC","NATION","12 W 45TH STREET","","NEW YORK","NY",10036,40.75551091,-73.97989151,"(40.75551091, -73.97989151)"
"559","589 11TH TAVERN INC","MCQUAIDS PUBLIC HOUSE","589 11TH AVE","","NEW YORK","NY",10036,40.76213551,-73.99734944,"(40.76213551, -73.99734944)"
"560","656 NINTH AVENUE PUB CORP","CLEOS NINTH AVENUE SALOON","656 9TH AVENUE","","NEW YORK","NY",10036,40.76081402,-73.99080235,"(40.76081402, -73.99080235)"
"561","659 REST INC","MERCURY BAR & GRILLE","659 9TH AVE","","NEW YORK","NY",10036,40.76088158,-73.99091805,"(40.76088158, -73.99091805)"
"562","732 EIGHTH AVENUE CORP","PLAYWRIGHT TAVERN ACT II","732 8TH AVENUE","","NEW YORK","NY",10036,40.75948568,-73.98803718,"(40.75948568, -73.98803718)"
"563","E D & S RESTAURANT CORP","RIVERS EDGE","657 659 LENOX AVENUE","","NEW YORK","NY",10037,40.8192122,-73.9372851,"(40.8192122, -73.9372851)"
"564","CONJER RESTAURANT CORP","THE BEEKMAN","15 17 BEEKMAN STREET","AKA 132 NASSAU ST STORE #6","NEW YORK","NY",10038,40.71105235,-74.00637184,"(40.71105235, -74.00637184)"
"565","RYANS CLIFF STREET CORP","RYAN MAGUIRES ALE HOUSE","28 CLIFF STREET","","NEW YORK","NY",10038,40.70800233,-74.00562423,"(40.70800233, -74.00562423)"
"566","SANWEP RESTAURANT CORP","BRIDGE CAFE","16 16 1/2 DOVER STREET","AKA 279 WATER STREET","NEW YORK","NY",10038,NA,NA,""
"567","3 THREE BS CORP","T.J. BRYNES BAR & RESTAURANT","77 FULTON STREET","","NEW YORK","NY",10038,40.70916232,-74.0055047,"(40.70916232, -74.0055047)"
"568","HILLSTONE RESTAURANT GROUP INC","HILLSTONE RESTAURANT","153 E 53RD STREET","AKA 627 35TH LEXINGTON AVE","NEW YORK","NY",10022,40.75831876,-73.97072102,"(40.75831876, -73.97072102)"
"569","SCALINATELLA INC","","1031 3RD AVENUE","AKA 201 EAST 61ST STREET","NEW YORK","NY",10065,40.76278583,-73.96558405,"(40.76278583, -73.96558405)"
"570","ALFIE COMPANY LLC","CAVATAPPO GRILL","1712 1ST AVE","","NEW YORK","NY",10128,40.77860212,-73.94800633,"(40.77860212, -73.94800633)"
"571","AZK RESTAURANT INC","THREE GUYS RESTAURANT","49 E 96TH STREET","","NEW YORK","NY",10128,40.78726187,-73.95409691,"(40.78726187, -73.95409691)"
"572","SHIRT RESTAURANT CORP","ISLAND","1305 MADISON AVENUE","","NEW YORK","NY",10128,40.78477153,-73.95583919,"(40.78477153, -73.95583919)"
"573","JEWISH MUSEUM, THE & FOURTH ON FIFTH LLC","","1109 5TH AVE","","NEW YORK","NY",10128,40.78538133,-73.95749308,"(40.78538133, -73.95749308)"
"574","300 EAST 89TH ST REST CORP","AUCTION HOUSE","300 E 89TH ST","","NEW YORK","NY",10128,40.77971076,-73.95028029,"(40.77971076, -73.95028029)"
"575","JAYARVEE INC","BIRDLAND","315 W 44TH STREET","","NEW YORK","NY",10036,40.75876621,-73.98925925,"(40.75876621, -73.98925925)"
"576","PAULMIL CAFE INC/ LOUIS SAGAR AS CO-LICENSEE","NATUREES","11 17 2ND AVENUE","AKA 25 E 1ST STREET","NEW YORK","NY",10003,40.73761854,-73.99138843,"(40.73761854, -73.99138843)"
"577","TOZZER LTD","NIAGRA","112 AVENUE A","","NEW YORK","NY",10009,40.72629882,-73.98325734,"(40.72629882, -73.98325734)"
"578","136 WEST BROADWAY INC","EDWARD'S","136 W BROADWAY","","NEW YORK","NY",10013,40.71677831,-74.00829404,"(40.71677831, -74.00829404)"
"579","1337 THIRD AVENUE LLC","ATLANTIC GRILL","1337 39 41 3RD AVENUE","","NEW YORK","NY",10021,40.73082577,-73.98888892,"(40.73082577, -73.98888892)"
"580","TERMINUS RESTAURANT ASSOC LLC","ORSAY","1057 1059 LEXINGTON AVE","","NEW YORK","NY",10021,40.77241891,-73.96066265,"(40.77241891, -73.96066265)"
"581","J & J INTERNATIONAL NEW YORK INC","KARMA","51 1ST AVENUE","3RD & 4TH AVENUE","NEW YORK","NY",10003,40.72476315,-73.98743728,"(40.72476315, -73.98743728)"
"582","PRUNE LLC","PRUNE RESTAURANT","54 E 1ST STREET","1ST & 2ND AVENUE","NEW YORK","NY",10003,40.72374136,-73.98942626,"(40.72374136, -73.98942626)"
"583","RAROC LLC","CUCINA","30 ROCKEFELLER PLAZA","CONCOURSE LEVEL","NEW YORK","NY",10112,40.75846943,-73.97904258,"(40.75846943, -73.97904258)"
"584","YORK FOOD CORP","FALUCKA","162 BLEECKER STREET","","NEW YORK","NY",10012,40.72856017,-74.0000897,"(40.72856017, -74.0000897)"
"585","F L E J INC","POMODONO RUSSO","229 COLUMBUS AVE","","NEW YORK","NY",10023,40.7763549,-73.97946868,"(40.7763549, -73.97946868)"
"586","GBND ENTERPRISES INC","THE VILLAGE UNDERGROUND","130 WEST 3RD STREET","","NEW YORK","NY",10012,40.73052936,-74.00046356,"(40.73052936, -74.00046356)"
"587","H.E.C. ENTERPRISES, INC","JULIUS","159 W 10TH ST","W 10TH STREET","NEW YORK","NY",10014,40.73446057,-74.00151802,"(40.73446057, -74.00151802)"
"588","675 HUDSON VAULT LLC","DOS CAMINOS & TROY LIQUOR BAR","675 HUDSON STREET","13TH & 14TH STREETS","NEW YORK","NY",10014,40.74028077,-74.00533337,"(40.74028077, -74.00533337)"
"589","120 ESSEX MARKET LLC","ESSEX","120 ESSEX STREET","","NEW YORK","NY",10002,40.71938821,-73.98768316,"(40.71938821, -73.98768316)"
"590","CHELSEA PARK LLC","THE PARK","118 126 10TH AVENUE","","NEW YORK","NY",10011,40.74420312,-74.00662281,"(40.74420312, -74.00662281)"
"591","CRUST INC","TOAST","3157 BROADWAY","","NEW YORK","NY",10027,40.81468307,-73.9592339,"(40.81468307, -73.9592339)"
"592","LLB INC","PASCALOU","1308 MADISON AVENUE","","NEW YORK","NY",10128,40.78508606,-73.95577794,"(40.78508606, -73.95577794)"
"593","KITCHEN TABLE INC","","88B 2ND AVE","","NEW YORK","NY",10003,40.72675921,-73.98891465,"(40.72675921, -73.98891465)"
"594","42ND APPLE LLC","APPLEBEE'S NEIGHBORHOOD GRILL & BAR","234 W 42ND ST","","NEW YORK","NY",10036,40.75646177,-73.98794558,"(40.75646177, -73.98794558)"
"595","GREEK KITCHEN INC","THE GREEK KITCHEN","885 10TH AVENUE","","NEW YORK","NY",10019,40.76955958,-73.98830964,"(40.76955958, -73.98830964)"
"596","TANGIER LLC","MACAO TRADING COMPANY","311 CHURCH ST","","NEW YORK","NY",10013,40.71973526,-74.00404489,"(40.71973526, -74.00404489)"
"597","355 W 41ST TAVERN INC","TOBACCO ROAD","355 WEST 41ST STREET","","NEW YORK","NY",10036,40.7576824,-73.99274923,"(40.7576824, -73.99274923)"
"598","574 9TH AVE REST CORP","DAVE'S TAVERN","574 9TH AVE","","NEW YORK","NY",10036,40.75822072,-73.99275809,"(40.75822072, -73.99275809)"
"599","1236 SECOND AVENUE REST CORP","SILVER STAR RESTAURANT","1236 2ND AVE","","NEW YORK","NY",10021,40.76418193,-73.96164943,"(40.76418193, -73.96164943)"
"600","SCHATZI CORP","WALLSE","342-344 W 11TH ST AKA 713 WASH","","NEW YORK","NY",10014,40.73546952,-74.0081945,"(40.73546952, -74.0081945)"
"601","CHICKWEED INC","ANNISA","13 BARROW STREET","WEST 4TH STREET & 7TH AVENUE","NEW YORK","NY",10014,40.73268401,-74.00235966,"(40.73268401, -74.00235966)"
"602","DOUBLE KITCHEN LLC","ICHIUMI","6 E 32ND STREET","","NEW YORK","NY",10016,40.74695136,-73.98517723,"(40.74695136, -73.98517723)"
"603","PULPO LLC","ESCA","402 W 43RD ST","","NEW YORK","NY",10036,40.75911129,-73.99231151,"(40.75911129, -73.99231151)"
"604","MANHATTAN CENTER STUDIOS INC","","311 W 34TH STREET","","NEW YORK","NY",10001,40.75239116,-73.99378717,"(40.75239116, -73.99378717)"
"605","RA HERALD SQUARE LLC","ROWLAND'S BAR & GRILL","151 W 34TH ST","","NEW YORK","NY",10001,40.75047321,-73.98928013,"(40.75047321, -73.98928013)"
"606","RAVE RESTAURANT INC","HURLEY'S SALOON","232 WEST 48TH ST","","NEW YORK","NY",10036,40.76042541,-73.9855457,"(40.76042541, -73.9855457)"
"607","BRASSERIE 8 1/2 LLC","","9 W 57TH ST","","NEW YORK","NY",10019,40.76311657,-73.97430932,"(40.76311657, -73.97430932)"
"608","C & C FIRST AVE CORP","BAR COASTAL NYC","1495 1ST AVE","EAST 78TH &  EAST 79TH STREETS","NEW YORK","NY",10075,40.77169434,-73.95321784,"(40.77169434, -73.95321784)"
"609","505-23 BAR INC","THE HALF KING","505-507 WEST 23RD STREET","","NEW YORK","NY",10011,40.74785505,-74.00441535,"(40.74785505, -74.00441535)"
"610","7TH & BARROW LLC","SUSHI SAMBA","87 7TH AVE SOUTH","","NEW YORK","NY",10014,40.73250497,-74.0033754,"(40.73250497, -74.0033754)"
"611","PIPPO PLUTO PAPERINO INC","GRADISCA","126 W 13TH ST","","NEW YORK","NY",10011,40.73698507,-73.99809883,"(40.73698507, -73.99809883)"
"612","GROTTA AZZURRA INN INC","","177 MULBERRY STREET","","NEW YORK","NY",10013,40.72046868,-73.99690528,"(40.72046868, -73.99690528)"
"613","IXHEL CORPORATION","CAFE FRIDA","368 COLUMBUS AVE","","NEW YORK","NY",10024,40.78103367,-73.97622205,"(40.78103367, -73.97622205)"
"614","BROADWAY & 166TH LLC","DALLAS BBQ","3956 BROADWAY","165TH & 166TH STREETS","NEW YORK","NY",10032,40.83966298,-73.94055877,"(40.83966298, -73.94055877)"
"615","BILLY MARKS WEST INC","","332 NINTH AVENUE","","NEW YORK","NY",10001,NA,NA,""
"616","ZENITH CORPORATION","TRAILER PARK LOUNGE GRILL","271 WEST 23RD STREET","","NEW YORK","NY",10011,40.74497831,-73.99759925,"(40.74497831, -73.99759925)"
"617","CRAFT LLC","","43 47 E 19TH ST","","NEW YORK","NY",10003,40.73831557,-73.98941954,"(40.73831557, -73.98941954)"
"618","PIPO POOL INC","","582 WEST 183RD STREET","183RD & ST NICHOLAS","NEW YORK","NY",10033,40.85026292,-73.93240478,"(40.85026292, -73.93240478)"
"619","3920 BWY REST INC","","3920 BROADWAY","","NEW YORK","NY",10032,NA,NA,""
"620","ZOUK LTD","PALMA","28 1/2 CORNELIA STREET","","NEW YORK","NY",10014,40.73153236,-74.00160326,"(40.73153236, -74.00160326)"
"621","MORELAND INC","SIBERIA SOUTH","356 W 40TH STREET","","NEW YORK","NY",10018,40.75656878,-73.99235713,"(40.75656878, -73.99235713)"
"622","GILLI INC","AL DENTE","417 415 AMSTERDAM AVE","79TH & 80TH ST ON AMSTERDAM AV","NEW YORK","NY",10024,40.78365562,-73.97785993,"(40.78365562, -73.97785993)"
"623","121 W 45TH ST RESTAURANT CORP","","121 W 45TH ST","6TH AVENUE BROADWAY","NEW YORK","NY",10036,40.75720384,-73.9836278,"(40.75720384, -73.9836278)"
"624","IAPI RESTAURANT INC","ZEBU GRILL","305 E 92ND ST","2ND & 3RD AVENUES","NEW YORK","NY",10128,40.78165288,-73.94875678,"(40.78165288, -73.94875678)"
"625","BADEN BADEN NEW YORK INC","WA BAR","28 W 32ND STREET","","NEW YORK","NY",10001,40.74788655,-73.98740283,"(40.74788655, -73.98740283)"
"626","ASIA FIVE EIGHT LLC","","42 44 EAST 58TH STREET","","NEW YORK","NY",10022,40.76279919,-73.97164459,"(40.76279919, -73.97164459)"
"627","L'ANTICO INC","BARBARESCO","843 LEXINGTON AVENUE","","NEW YORK","NY",10065,40.76538819,-73.96578453,"(40.76538819, -73.96578453)"
"628","JMG RESTAURANT CORP","CAFE LUKA","1319 1ST AVE","E 70TH STREET & E 71ST STREET","NEW YORK","NY",10021,40.76705585,-73.95660475,"(40.76705585, -73.95660475)"
"629","CENTRAL PARK BOATHOUSE LLC","","EAST 72ND STREET AT PARK DRIVE","CENTRAL PARK LAKE","NEW YORK","NY",10021,40.77544463,-73.96761088,"(40.77544463, -73.96761088)"
"630","THIRD AVE & ST MARKS INC","CONTINENTAL","25 3RD AVE","ST. MARKS & 3RD AVE","NEW YORK","NY",10003,40.72973758,-73.98966717,"(40.72973758, -73.98966717)"
"631","STUDIO CAFFE LLC","STUDIO CAFFE AND THE DECK","CHELSEA PIERS #59 2ND LEVEL","17 & 18 STREETS","NEW YORK","NY",10011,40.7258674,-73.98973993,"(40.7258674, -73.98973993)"
"632","241 SULLIVAN ST CAFE CORP","SHADE","241 SULLIVAN STREET","","NEW YORK","NY",10012,40.72983845,-73.99945396,"(40.72983845, -73.99945396)"
"633","API RESTAURANT INC","AZALEA","1633 BROADWAY","AKA 224 W 51 ST","NEW YORK","NY",10019,40.76151437,-73.98398825,"(40.76151437, -73.98398825)"
"634","EMPORIUM BRASIL INC","EMPORIUM BRASIL","15 WEST 46TH STREET","","NEW YORK","NY",10036,40.75628626,-73.97948471,"(40.75628626, -73.97948471)"
"635","MNY HOLDINGS ASSOCIATES, LLC","BAKER STREET","1152 1ST AVENUE","S E C OF 63RD & 1ST AVENUE","NEW YORK","NY",10021,40.76209185,-73.96006326,"(40.76209185, -73.96006326)"
"636","GIGINO AT WAGNER PARK LLC","","20 BATTERY PLACE","FIRST PLACE LITTLE WEST STREET","NEW YORK","NY",10004,40.70475627,-74.01715084,"(40.70475627, -74.01715084)"
"637","COBRA CATERERS INC","HUDSON HOUND","575 HUDSON STREET","","NEW YORK","NY",10014,40.73614642,-74.00597491,"(40.73614642, -74.00597491)"
"638","CARLOW EAST CORP","CARLOW EAST","1254 LEXINGTON AVENUE","84TH & 85TH STREETS","NEW YORK","NY",10028,40.77869533,-73.95622937,"(40.77869533, -73.95622937)"
"639","HIKO INC","TSUKUSHI RESTAURANT","300 EAST 41ST STREET","","NEW YORK","NY",10017,40.74907057,-73.97267394,"(40.74907057, -73.97267394)"
"640","AAM HOLDING CORP","PRIVATE EYES","316 318 320 WEST 45TH STREET","","NEW YORK","NY",10036,40.75937489,-73.98903182,"(40.75937489, -73.98903182)"
"641","CHINA CLASSIC RESTAURANT ENTERPRISES, INC","CHEF HO'S PEKING DUCK GRILL","1720 2ND AVE","89TH  & 90TH STREETS","NEW YORK","NY",10128,40.77995226,-73.95011707,"(40.77995226, -73.95011707)"
"642","BARMAR LLC","LA PALAPA","77 ST MARKS PLACE","","NEW YORK","NY",10003,40.72780004,-73.98563717,"(40.72780004, -73.98563717)"
"643","RA GARDEN LLC","NICK & STEF'S","9 PENN PLAZA N/W CORNER-GND FL","","NEW YORK","NY",10001,40.74956755,-73.99157275,"(40.74956755, -73.99157275)"
"644","ADR RESTAURANT INC","THE DELANCEY","168 DELANCEY STREET","","NEW YORK","NY",10002,40.71788133,-73.98552756,"(40.71788133, -73.98552756)"
"645","SIPAN RESTAURANT OF NY INC","PIO PIO","702 704 AMSTERDAM AVE","","NEW YORK","NY",10025,40.79287416,-73.97130918,"(40.79287416, -73.97130918)"
"646","TWO BIG BOYS INC","POSH","405 WEST 51ST STREET","","NEW YORK","NY",10019,40.76423268,-73.98861779,"(40.76423268, -73.98861779)"
"647","RUE B CORP","","188 AVENUE B","E 11TH & 12TH STREETS","NEW YORK","NY",10009,NA,NA,""
"648","MARCO POLO CATERERS INC","TOCQUEVILLE","15 E 15TH ST","WEST STORE","NEW YORK","NY",10003,40.73655192,-73.99280367,"(40.73655192, -73.99280367)"
"649","C A P RESTAURANT CORP","ROSA'S PLACE RESTAURANT","301 W 48TH STREET","8TH & 9TH AVENUES","NEW YORK","NY",10036,40.76110278,-73.98701242,"(40.76110278, -73.98701242)"
"650","AVE A KARAOKE CORP","KARAOKE SING SING","81 AVENUE A","5TH & 6TH STREETS","NEW YORK","NY",10009,40.72523801,-73.98418496,"(40.72523801, -73.98418496)"
"651","CHOW DOWN INC","EL CENTRO","824 NINTH AVENUE","CORNER OF 54TH STREET","NEW YORK","NY",10019,40.76609435,-73.98695767,"(40.76609435, -73.98695767)"
"652","683 NINTH AVENUE INC","BARRAGE","683 NINTH AVE AKA 401 W 47TH","","NEW YORK","NY",10036,40.76165517,-73.99036394,"(40.76165517, -73.99036394)"
"653","THESPIAN THEATRE INC","CIRCLE IN THE SQUARE THEATRE","1633 BROADWAY","CORNER OF 50TH STREET","NEW YORK","NY",10019,NA,NA,""
"654","2896 BROADWAY FOOD SERVICE CORP","COMMUNITY FOOD & JUICE","2893 BROADWAY","","NEW YORK","NY",10025,40.80593127,-73.96562008,"(40.80593127, -73.96562008)"
"655","300 W 43RD STREET REALTY INC","AKA 300 WEST 43RD STREET","303 WEST 42ND ST","8TH AVENUE & 42ND STREET","NEW YORK","NY",10036,40.7578827,-73.9894108,"(40.7578827, -73.9894108)"
"656","CMR CORP","ELLA NYC","249 251 COLUMBUS AVENUE","","NEW YORK","NY",10023,40.77707394,-73.97893228,"(40.77707394, -73.97893228)"
"657","PIER 66 MARITIME INC","LACKAWANNA BARGE","205 207 12TH AVE","","NEW YORK","NY",10001,0,0,"(0.0, 0.0)"
"658","1373 1ST CAFE INC","BANSHEE","1373 FIRST AVENUE","74TH STREET 75TH STREET","NEW YORK","NY",10021,40.76870291,-73.95540387,"(40.76870291, -73.95540387)"
"659","1702 RATHBONES INC","RATHBONES","1702 2ND AVENUE","","NEW YORK","NY",10128,40.77924098,-73.95063127,"(40.77924098, -73.95063127)"
"660","CAFE C III LLC","NORTH SQUARE","103 WAVERLY PLACE","MCDOUGAL & 6TH AVENUE","NEW YORK","NY",10011,40.73230605,-73.9986662,"(40.73230605, -73.9986662)"
"661","493 REST INC","MERCURY BAR & GRILL","493 3RD AVENUE","33RD & 34TH STREETS","NEW YORK","NY",10016,40.74525401,-73.97837526,"(40.74525401, -73.97837526)"
"662","PENNSYLVANIA JAYCOX INC","THE MAGICIAN","118 RIVINGTON STREET","ESSEX AND NORFOLK STS/","NEW YORK","NY",10002,40.71986983,-73.98748443,"(40.71986983, -73.98748443)"
"663","ENOTECA INC","LA LANTERNA DI VITTORIO","129 MACDOUGAL STREET","","NEW YORK","NY",10012,40.73061334,-74.00003349,"(40.73061334, -74.00003349)"
"664","LITTLE HANDS PLAYCAFE INC","DEATH & CO","433 E 6TH ST","","NEW YORK","NY",10009,40.72613004,-73.98537973,"(40.72613004, -73.98537973)"
"665","OLD HEIDELBERG CORP","HEIDELBERG RESTAURANT","1648 SECOND AVENUE","85TH & 86TH STREETS","NEW YORK","NY",10028,40.77749695,-73.95191791,"(40.77749695, -73.95191791)"
"666","BOWERY TECH RESTAURANT LLC","THE BOWERY ELECTRIC","327 BOWERY","","NEW YORK","NY",10003,40.72569061,-73.99187633,"(40.72569061, -73.99187633)"
"667","44TH STREET RESTAURANT LLC","DB BISTRO MODERNE","55 WEST 44TH ST","","NEW YORK","NY",10036,40.7555528,-73.98165471,"(40.7555528, -73.98165471)"
"668","GAF WEST LTD","","401 W 48TH STREET","","NEW YORK","NY",10036,40.7623228,-73.98991283,"(40.7623228, -73.98991283)"
"669","SHEBA ETHIOPIAN RESTAURANT INC","QUEEN OF SHEBA","650 10TH AVENUE","","NEW YORK","NY",10036,40.7618698,-73.99374854,"(40.7618698, -73.99374854)"
"670","KINSALE ROAD INC","DEACON BRODIES","370 WEST 46TH STREET","8 & 9 AVENUE","NEW YORK","NY",10036,40.76058,-73.9899394,"(40.76058, -73.9899394)"
"671","LUPES EAST L A KITCHEN INC","","110 SIXTH AVENUE","WATTS & BROOME","NEW YORK","NY",10013,40.72344964,-74.00479533,"(40.72344964, -74.00479533)"
"672","LUNELLA RISTORANTE INC","","173 MULBERRY STREET","","NEW YORK","NY",10013,40.72024686,-73.99699439,"(40.72024686, -73.99699439)"
"673","NEGRIL VILLAGE INC","","70 W 3RD ST","LAGUARDIA & MACDOUGAL STREETS","NEW YORK","NY",10012,40.72952685,-73.99828454,"(40.72952685, -73.99828454)"
"674","DES RESTAURANT ASSOCIATES INC","PETER DILLONS","353 LEXINGTON AVENUE","","NEW YORK","NY",10016,40.75010792,-73.97691123,"(40.75010792, -73.97691123)"
"675","OLD CASTLE CORP","OLD CASTLE PUB & RESTAURANT","160 WEST 54TH STREET","7TH & 6TH AVENUES","NEW YORK","NY",10019,40.76308425,-73.98034944,"(40.76308425, -73.98034944)"
"676","LAGGAN REST INC","MURPHY'S","977 SECOND AVENUE","51ST & 52ND STREETS","NEW YORK","NY",10022,40.75595313,-73.96780484,"(40.75595313, -73.96780484)"
"677","EAGLE OPEN KITCHEN LLC","EAGLE","554 WEST 28TH ST","","NEW YORK","NY",10001,40.75153815,-74.00373252,"(40.75153815, -74.00373252)"
"678","UNION SQUARE CATERING FACILITY INC","COFFEE SHOP","30 EAST 16TH STREET","CRN 16TH ST & UNION SQUARE PK","NEW YORK","NY",10003,40.73703361,-73.99211887,"(40.73703361, -73.99211887)"
"679","H YACHI INC","YUKI 55","253 WEST 55TH STREET","","NEW YORK","NY",10019,40.76498141,-73.98261421,"(40.76498141, -73.98261421)"
"680","ELMHURST 3 INC","THE VILLAGE TAVERN","46 BEDFORD ST","LEROY & 7TH AVE SOUTH","NEW YORK","NY",10014,40.73046583,-74.00423342,"(40.73046583, -74.00423342)"
"681","SUNSHINE USA INC","WU LIANG YE","36 WEST 48TH STREET","5TH & 6TH AVENUES","NEW YORK","NY",10036,40.75793734,-73.97979136,"(40.75793734, -73.97979136)"
"682","GREAT PERFORMANCES ARTISTS AS WAITRESSES INC","MAE/MAE AN ENOTECCA DI VINO","68 VANDAM ST","","NEW YORK","NY",10013,40.72661076,-74.00754722,"(40.72661076, -74.00754722)"
"683","BOGGY DEPOT INC","DROM","85 AVENUE A","5TH & 6TH STREETS","NEW YORK","NY",10009,40.72531521,-73.98413018,"(40.72531521, -73.98413018)"
"684","23RD & 8TH LLC","DALLAS BBQ","261 8TH AVENUE","23RD & 24TH","NEW YORK","NY",10011,40.74546045,-73.99844451,"(40.74546045, -73.99844451)"
"685","NORTH 43RD LLC","TONY'S DI NAPOLI","147 WEST 43RD STREET","6TH AVENUE & BROADWAY","NEW YORK","NY",10036,40.75615655,-73.98496264,"(40.75615655, -73.98496264)"
"686","DISH RESTAURANT CORP","THE DISH","201 8TH AVENUE","","NEW YORK","NY",10011,40.74361118,-73.99980486,"(40.74361118, -73.99980486)"
"687","GC ALPHA LLC","CIPRIANI DOLCI","GRAND CENTRAL STATION W BAL","","NEW YORK","NY",10017,40.75300149,-73.97786028,"(40.75300149, -73.97786028)"
"688","HYO DONG GAK INC","","51 WEST 35TH STREET","","NEW YORK","NY",10001,40.74998691,-73.98600907,"(40.74998691, -73.98600907)"
"689","BRASSERIE FELIX INC","RESTAURANT FELIX","340 WEST BROADWAY","","NEW YORK","NY",10013,40.72248096,-74.00373989,"(40.72248096, -74.00373989)"
"690","ORIGINE LLC","JOJO","160 E 64TH STREET","","NEW YORK","NY",10021,40.76519445,-73.96567656,"(40.76519445, -73.96567656)"
"691","JADA RESTAURANT INC","THE BENNETT","134 W BROADWAY","","NEW YORK","NY",10013,40.71669929,-74.00827094,"(40.71669929, -74.00827094)"
"692","SAIGON FOOD CORP","O MAI","158 NINTH AVE","","NEW YORK","NY",10011,40.74441296,-74.0027432,"(40.74441296, -74.0027432)"
"693","1567 BWAY RESTAURANT ASSOCIATES LLC","BLUE FIN/DOS CAMINOS","1567 BROADWAY","S W CRN OF 47TH ST & BROADWAY","NEW YORK","NY",10019,40.7593201,-73.98517154,"(40.7593201, -73.98517154)"
"694","319 WEST 51ST STREET REST INC","MARIA PIA","319 WEST 51ST STREET","","NEW YORK","NY",10019,40.76319773,-73.98617345,"(40.76319773, -73.98617345)"
"695","GRIFFS GLOBAL CORP OPERATOR/BOWERY POETRY CLUB INC","DUANE PARK BPC","308 BOWERY","HOUSTON & BLEECKER STREETS","NEW YORK","NY",10012,40.7248407,-73.99248306,"(40.7248407, -73.99248306)"
